{"success":true,"data":{"buildings":[],"amodiataireBuildings":[{"id":"bat_3e098fae-b8c2-4277-974c-57512899e94a_ff2f67a0","amodiataireId":"3e098fae-b8c2-4277-974c-57512899e94a","amodiataireName":"DPL","activitySector":"other","name":"Excel-9","coordinates":{"lat":4.01548982699462,"lng":9.673259355634173},"latitude":4.01548982699462,"longitude":9.673259355634173,"images":[]},{"id":"bat_cacfa9fc-3ec2-455f-a149-d2f35d269824_92268cef","amodiataireId":"cacfa9fc-3ec2-455f-a149-d2f35d269824","amodiataireName":"GESPROS GROUP","activitySector":"other","name":"Excel-25","coordinates":{"lat":4.015415155914359,"lng":9.682261600141803},"latitude":4.015415155914359,"longitude":9.682261600141803,"images":[]},{"id":"bat_a4ccd554-5a41-4962-af4e-7ec982632aae_8a146ea5","amodiataireId":"a4ccd554-5a41-4962-af4e-7ec982632aae","amodiataireName":"MMF","activitySector":"other","name":"Excel-10","coordinates":{"lat":4.02073923489738,"lng":9.675592431916467},"latitude":4.02073923489738,"longitude":9.675592431916467,"images":[]},{"id":"bat_87457aa4-447b-4952-8570-526644057af5_34cba64e","amodiataireId":"87457aa4-447b-4952-8570-526644057af5","amodiataireName":"GALAXY PHYTO","activitySector":"other","name":"Excel-21","coordinates":{"lat":4.014104908289112,"lng":9.674362668488337},"latitude":4.014104908289112,"longitude":9.674362668488337,"images":[]},{"id":"bat_9a2afe8a-e0a9-4537-be6f-25fb24b4d555_807ba20e","amodiataireId":"9a2afe8a-e0a9-4537-be6f-25fb24b4d555","amodiataireName":"Base Road-Vision","activitySector":"other","name":"Excel-29","coordinates":{"lat":4.019724178430134,"lng":9.693968143339763},"latitude":4.019724178430134,"longitude":9.693968143339763,"images":[]},{"id":"bat_b00145da-20fe-4197-b7f6-05a5750fe182_8f60d094","amodiataireId":"b00145da-20fe-4197-b7f6-05a5750fe182","amodiataireName":"SONECOMX","activitySector":"other","name":"Excel-26","coordinates":{"lat":4.016876324201017,"lng":9.68449959478173},"latitude":4.016876324201017,"longitude":9.68449959478173,"images":[]},{"id":"bat_1c032258-4608-43cf-a6b3-f335242b3f5f_dfff0e5c","amodiataireId":"1c032258-4608-43cf-a6b3-f335242b3f5f","amodiataireName":"SOSACAM","activitySector":"other","name":"Excel-11","coordinates":{"lat":4.021038504067508,"lng":9.676041437395357},"latitude":4.021038504067508,"longitude":9.676041437395357,"images":[]},{"id":"bat_f08cf1e9-55eb-4ffc-a285-bda5f53c4fce_28ebb77e","amodiataireId":"f08cf1e9-55eb-4ffc-a285-bda5f53c4fce","amodiataireName":"SCI KUETE JEAN","activitySector":"other","name":"Excel-39","coordinates":{"lat":4.066150121705736,"lng":9.700366154449183},"latitude":4.066150121705736,"longitude":9.700366154449183,"images":[]},{"id":"bat_e35c75c5-050d-4f0d-a614-94ddf5c1f8f4_49625f51","amodiataireId":"e35c75c5-050d-4f0d-a614-94ddf5c1f8f4","amodiataireName":"MALAK","activitySector":"other","name":"Excel-28","coordinates":{"lat":4.022107976702333,"lng":9.691097236464602},"latitude":4.022107976702333,"longitude":9.691097236464602,"images":[]},{"id":"territory-6","amodiataireId":"1abbf419-38c1-485b-83b5-7891733947f2","amodiataireName":"Amodiataire Temporaire - Lot 58","amodiataireEmail":"test@amodaitaire.com","activitySector":"other","name":"Lot 58","coordinates":{"lat":4.015123962891896,"lng":9.692865975831433},"latitude":4.015123962891896,"longitude":9.692865975831433,"images":[]},{"id":"bat-001","amodiataireId":"1c216725-df86-4eaf-abec-81723ea4b041","amodiataireName":"Entreprise Test SARL","amodiataireEmail":"test@amodiataire.com","activitySector":"other","name":"LOT-001","coordinates":{"lat":4.0511,"lng":9.7679},"latitude":4.0511,"longitude":9.7679,"images":[]},{"id":"bat_ed764225-fbd3-401a-be30-f6b46df69047_3b557442","amodiataireId":"ed764225-fbd3-401a-be30-f6b46df69047","amodiataireName":"GROUPE MAGNONG","activitySector":"other","name":"Excel-16","coordinates":{"lat":4.022005495997224,"lng":9.68760873310362},"latitude":4.022005495997224,"longitude":9.68760873310362,"images":[]},{"id":"bat_ce31bc8b-943e-49a7-8012-e4b250169bdc_0d9e7517","amodiataireId":"ce31bc8b-943e-49a7-8012-e4b250169bdc","amodiataireName":"SGILC","activitySector":"other","name":"Excel-3","coordinates":{"lat":4.023546011886539,"lng":9.67252654254794},"latitude":4.023546011886539,"longitude":9.67252654254794,"images":[]},{"id":"territory-30","amodiataireId":"ffaa0a14-e5cb-4b8a-aeeb-49a73a75be0d","amodiataireName":"MIRA","activitySector":"other","name":"territory-30","coordinates":{"lat":4.011180580846941,"lng":9.67460901630386},"latitude":4.011180580846941,"longitude":9.67460901630386,"images":[]},{"id":"lot-1765811276576","amodiataireId":"ffaa0a14-e5cb-4b8a-aeeb-49a73a75be0d","amodiataireName":"MIRA","activitySector":"other","name":"lot-68","coordinates":{"lat":4.007076279672358,"lng":9.678074509319416},"latitude":4.007076279672358,"longitude":9.678074509319416,"images":[]},{"id":"lot-1765812040749","amodiataireId":"ffaa0a14-e5cb-4b8a-aeeb-49a73a75be0d","amodiataireName":"MIRA","activitySector":"other","name":"lot-58","coordinates":{"lat":4.006793847508597,"lng":9.680197009121164},"latitude":4.006793847508597,"longitude":9.680197009121164,"images":[]},{"id":"lot-1765812816639","amodiataireId":"ffaa0a14-e5cb-4b8a-aeeb-49a73a75be0d","amodiataireName":"MIRA","activitySector":"other","name":"lot-68","coordinates":{"lat":4.0085586195828755,"lng":9.685193577531605},"latitude":4.0085586195828755,"longitude":9.685193577531605,"images":[]},{"id":"territory-46, territory-390","amodiataireId":"ffaa0a14-e5cb-4b8a-aeeb-49a73a75be0d","amodiataireName":"MIRA","activitySector":"other","name":"territory-46, territory-390","coordinates":{"lat":4.021578370107715,"lng":9.67403907064093},"latitude":4.021578370107715,"longitude":9.67403907064093,"images":[]},{"id":"territory-46","amodiataireId":"ffaa0a14-e5cb-4b8a-aeeb-49a73a75be0d","amodiataireName":"MIRA","activitySector":"other","name":"territory-46","coordinates":{"lat":4.023096066349299,"lng":9.675233625653245},"latitude":4.023096066349299,"longitude":9.675233625653245,"images":[]},{"id":"territory-390","amodiataireId":"ffaa0a14-e5cb-4b8a-aeeb-49a73a75be0d","amodiataireName":"MIRA","activitySector":"other","name":"territory-390","coordinates":{"lat":4.02006067386613,"lng":9.672844515628617},"latitude":4.02006067386613,"longitude":9.672844515628617,"images":[]},{"id":"Lot 26","amodiataireId":"ffaa0a14-e5cb-4b8a-aeeb-49a73a75be0d","amodiataireName":"MIRA","activitySector":"other","name":"Lot 26","coordinates":{"lat":4.012835431477805,"lng":9.6737299548279},"latitude":4.012835431477805,"longitude":9.6737299548279,"images":[]},{"id":"territory-34","amodiataireId":"ffaa0a14-e5cb-4b8a-aeeb-49a73a75be0d","amodiataireName":"MIRA","activitySector":"other","name":"Lot 26","coordinates":{"lat":4.012835431477805,"lng":9.6737299548279},"latitude":4.012835431477805,"longitude":9.6737299548279,"images":[]},{"id":"bat_amod_excel_31_1766040310032","amodiataireId":"ffaa0a14-e5cb-4b8a-aeeb-49a73a75be0d","amodiataireName":"MIRA","activitySector":"other","name":"Excel-31","coordinates":{"lat":4.0511,"lng":9.7679},"latitude":4.0511,"longitude":9.7679,"images":[]},{"id":"territory-157","amodiataireId":"ffaa0a14-e5cb-4b8a-aeeb-49a73a75be0d","amodiataireName":"MIRA","activitySector":"other","name":"Excel-5","coordinates":{"lat":4.022426032403741,"lng":9.674917613741076},"latitude":4.022426032403741,"longitude":9.674917613741076,"images":[]},{"id":"bat_d894fabe-b2ef-47c6-877d-559a895bd65d_dd0b1bcb","amodiataireId":"ffaa0a14-e5cb-4b8a-aeeb-49a73a75be0d","amodiataireName":"MIRA","activitySector":"other","name":"Excel-26","coordinates":{"lat":4.016876324201017,"lng":9.68449959478173},"latitude":4.016876324201017,"longitude":9.68449959478173,"images":[]},{"id":"bat_90029162-377b-4fcb-817b-c333c9eac363_c4573689","amodiataireId":"90029162-377b-4fcb-817b-c333c9eac363","amodiataireName":"SOMAF","activitySector":"other","name":"Excel-38","coordinates":{"lat":4.066716197730464,"lng":9.70281277083336},"latitude":4.066716197730464,"longitude":9.70281277083336,"images":[]},{"id":"bat_bdc5af1a-aa6a-4b05-aea0-5f97e6753364_306b7be5","amodiataireId":"bdc5af1a-aa6a-4b05-aea0-5f97e6753364","amodiataireName":"FOURNICAM","activitySector":"other","name":"Excel-23","coordinates":{"lat":4.0511,"lng":9.7679},"latitude":4.0511,"longitude":9.7679,"images":[]},{"id":"bat_2cd8930a-adbb-482b-bd85-eed5445694c3_7a09e5b5","amodiataireId":"bdc5af1a-aa6a-4b05-aea0-5f97e6753364","amodiataireName":"FOURNICAM","activitySector":"other","name":"Excel-37","coordinates":{"lat":4.021687355784294,"lng":9.680385604771377},"latitude":4.021687355784294,"longitude":9.680385604771377,"images":[]},{"id":"territory-1808","amodiataireId":"bdc5af1a-aa6a-4b05-aea0-5f97e6753364","amodiataireName":"FOURNICAM","activitySector":"other","name":"Lot 37","coordinates":{"lat":4.015919644927146,"lng":9.691370056432158},"latitude":4.015919644927146,"longitude":9.691370056432158,"images":[]},{"id":"bat_7ac5cfe1-cb25-4001-b240-0863fc89efeb_3704d841","amodiataireId":"7ac5cfe1-cb25-4001-b240-0863fc89efeb","amodiataireName":"SOGET","activitySector":"other","name":"Excel-20","coordinates":{"lat":4.019266104697611,"lng":9.683397840422103},"latitude":4.019266104697611,"longitude":9.683397840422103,"images":[]},{"id":"bat_67d86f0e-2328-46bc-a2ff-91c07db4f3cf_3f4a6089","amodiataireId":"67d86f0e-2328-46bc-a2ff-91c07db4f3cf","amodiataireName":"SODAFI","activitySector":"other","name":"Excel-12","coordinates":{"lat":4.020029784233347,"lng":9.678168505757258},"latitude":4.020029784233347,"longitude":9.678168505757258,"images":[]},{"id":"territory-133","amodiataireId":"8ba25534-9994-4e4c-b014-3b914622e3d0","amodiataireName":"COMTRASECAM","activitySector":"other","name":"territory-133","coordinates":{"lat":4.023211362559065,"lng":9.688308878298876},"latitude":4.023211362559065,"longitude":9.688308878298876,"images":[]},{"id":"territory-516","amodiataireId":"8ba25534-9994-4e4c-b014-3b914622e3d0","amodiataireName":"COMTRASECAM","activitySector":"other","name":"Lot 133","coordinates":{"lat":4.015796383339924,"lng":9.673674829125172},"latitude":4.015796383339924,"longitude":9.673674829125172,"images":[]},{"id":"bat_90340b28-6f9c-4b07-8e5e-4519e9bd4131_9e76989b","amodiataireId":"90340b28-6f9c-4b07-8e5e-4519e9bd4131","amodiataireName":"TRANSPRES","activitySector":"other","name":"Excel-17","coordinates":{"lat":4.023576096042363,"lng":9.686387816638566},"latitude":4.023576096042363,"longitude":9.686387816638566,"images":[]},{"id":"bat_a03b4f4b-94ec-40de-a79f-ed288f1852e0_b1b9011d","amodiataireId":"a03b4f4b-94ec-40de-a79f-ed288f1852e0","amodiataireName":"TRANSPORT SHIPPING","activitySector":"other","name":"Excel-32","coordinates":{"lat":4.012633336624371,"lng":9.673050536117227},"latitude":4.012633336624371,"longitude":9.673050536117227,"images":[]},{"id":"bat_3cb0fdb7-9886-4f3e-9e78-151026d5b749_98db2802","amodiataireId":"3cb0fdb7-9886-4f3e-9e78-151026d5b749","amodiataireName":"SMAP","activitySector":"other","name":"Excel-13","coordinates":{"lat":4.021104097816891,"lng":9.679511709418245},"latitude":4.021104097816891,"longitude":9.679511709418245,"images":[]},{"id":"lot-1765619015168-0","amodiataireId":"f501bef7-7dad-41c6-a082-cad3f1ab4080","amodiataireName":"SMALTO","activitySector":"other","name":"lot-52","coordinates":{"lat":4.023696646566106,"lng":9.678955815060744},"latitude":4.023696646566106,"longitude":9.678955815060744,"images":[]},{"id":"territory-87","amodiataireId":"11e67ac5-5017-40c2-98a5-23d7af55ed78","amodiataireName":"SAFRIP SARL","amodiataireEmail":"vtchoula@baz-solutions.net","activitySector":"other","name":"Lot 16","coordinates":{"lat":4.018872517600544,"lng":9.680920118991175},"latitude":4.018872517600544,"longitude":9.680920118991175,"images":[]},{"id":"lot-1765620505348-0","amodiataireId":"2cc59547-61a2-4b87-800d-bb95a6601a04","amodiataireName":"SCI HOKA","activitySector":"other","name":"lot-19","coordinates":{"lat":4.021618338326711,"lng":9.688860075201017},"latitude":4.021618338326711,"longitude":9.688860075201017,"images":[]},{"id":"lot-1765619389960-0","amodiataireId":"e6c48ff2-b7ae-4b09-bcbf-9fb957dedafe","amodiataireName":"SCI PLANET","activitySector":"other","name":"lot-94","coordinates":{"lat":4.0212318804750415,"lng":9.681482595972387},"latitude":4.0212318804750415,"longitude":9.681482595972387,"images":[]},{"id":"bat_862d1571-58cb-4601-a5d5-1bf1cf4da68c_b80d7679","amodiataireId":"862d1571-58cb-4601-a5d5-1bf1cf4da68c","amodiataireName":"AFRIDFROID","activitySector":"other","name":"Excel-17","coordinates":{"lat":4.023576096042363,"lng":9.686387816638566},"latitude":4.023576096042363,"longitude":9.686387816638566,"images":[]},{"id":"territory-80","amodiataireId":"3c58aaa4-a1f5-4f91-a7cd-86844f1457b1","amodiataireName":"FRIEDLANDER","amodiataireEmail":"email@test.com","activitySector":"other","name":"Lot 31","coordinates":{"lat":4.067154939629251,"lng":9.701159685767326},"latitude":4.067154939629251,"longitude":9.701159685767326,"images":[]},{"id":"lot-1765620153693-0","amodiataireId":"b56c84bc-e8c8-46f6-a4fa-fecfc3409a40","amodiataireName":"CNCC","activitySector":"other","name":"lot-17","coordinates":{"lat":4.020639206204259,"lng":9.682894952412138},"latitude":4.020639206204259,"longitude":9.682894952412138,"images":[]},{"id":"lot-1765786793774-0","amodiataireId":"0e74c985-671b-42c8-90de-4dcbb8e5c39e","amodiataireName":"DIVERCO","activitySector":"other","name":"lot-39","coordinates":{"lat":4.019554333161508,"lng":9.693143663887364},"latitude":4.019554333161508,"longitude":9.693143663887364,"images":[]},{"id":"lot-1765787026425-0","amodiataireId":"225d0cf3-dc1f-4333-89b4-6f0653072732","amodiataireName":"ORCA","activitySector":"other","name":"lot-41","coordinates":{"lat":4.019886656170518,"lng":9.693424673304113},"latitude":4.019886656170518,"longitude":9.693424673304113,"images":[]},{"id":"lot-1765618009279-0","amodiataireId":"d6c2d56c-ca76-4693-95f1-4461926f0535","amodiataireName":"TRANSPORT OMEGA","activitySector":"other","name":"lot-64","coordinates":{"lat":4.02102889584877,"lng":9.675535693800859},"latitude":4.02102889584877,"longitude":9.675535693800859,"images":[]},{"id":"lot-1765618275180-0","amodiataireId":"5a5fbdc2-c11d-4f7b-8acb-87404a42120a","amodiataireName":"ADM","activitySector":"other","name":"lot-98","coordinates":{"lat":4.021898249641819,"lng":9.67919847090339},"latitude":4.021898249641819,"longitude":9.67919847090339,"images":[]},{"id":"lot-1765785833509-0","amodiataireId":"33250cd1-dbdb-42de-ad77-f25d413ff9c3","amodiataireName":"GENESIS PORT MANAGEMENT (BASE LOGISTIQUE TCHADIENNE))","activitySector":"other","name":"lot-43","coordinates":{"lat":4.0178408264745,"lng":9.687179144972015},"latitude":4.0178408264745,"longitude":9.687179144972015,"images":[]},{"id":"territory-363","amodiataireId":"0746ab1e-dd57-4068-914e-fe0a7d76a64f","amodiataireName":"2M","activitySector":"other","name":"territory-363","coordinates":{"lat":4.037005260957414,"lng":9.68028075689866},"latitude":4.037005260957414,"longitude":9.68028075689866,"images":[]},{"id":"territory-25","amodiataireId":"fa9112d3-28ca-48c6-84ae-b6c6e2f5b19f","amodiataireName":"2NM","activitySector":"other","name":"territory-25","coordinates":{"lat":4.015577231230178,"lng":9.674368098573396},"latitude":4.015577231230178,"longitude":9.674368098573396,"images":[]},{"id":"territory-323","amodiataireId":"fa9112d3-28ca-48c6-84ae-b6c6e2f5b19f","amodiataireName":"2NM","activitySector":"other","name":"territory-323","coordinates":{"lat":4.014880988735978,"lng":9.674652277002691},"latitude":4.014880988735978,"longitude":9.674652277002691,"images":[]},{"id":"territory-551","amodiataireId":"86a53cd6-19b9-4d11-ae19-5ea56094ed28","amodiataireName":"A T E","activitySector":"other","name":"territory-551","coordinates":{"lat":4.0279021919145634,"lng":9.668904875165307},"latitude":4.0279021919145634,"longitude":9.668904875165307,"images":[]},{"id":"territory-77","amodiataireId":"286f382c-5d7e-4800-a0ed-670e3ae4fd9d","amodiataireName":"ADS","activitySector":"other","name":"territory-77","coordinates":{"lat":4.018556285362935,"lng":9.68112931339947},"latitude":4.018556285362935,"longitude":9.68112931339947,"images":[]},{"id":"territory-570","amodiataireId":"e5d6d85e-1a78-449b-88df-b38e5b855ecd","amodiataireName":"AFRICA IMPORT EXPORT","activitySector":"other","name":"territory-570","coordinates":{"lat":4.014048021284406,"lng":9.685647019314603},"latitude":4.014048021284406,"longitude":9.685647019314603,"images":[]},{"id":"territory-357","amodiataireId":"ef51618b-506f-41eb-852c-1077ea6f9cc3","amodiataireName":"AFRILAND","activitySector":"other","name":"territory-357","coordinates":{"lat":4.0319581125330215,"lng":9.682185015010784},"latitude":4.0319581125330215,"longitude":9.682185015010784,"images":[]},{"id":"territory-166","amodiataireId":"a5bbc385-220e-4ce3-9dc7-7a433d03576b","amodiataireName":"AFISA","activitySector":"other","name":"territory-166","coordinates":{"lat":4.028362617959064,"lng":9.678851109658979},"latitude":4.028362617959064,"longitude":9.678851109658979,"images":[]},{"id":"territory-196","amodiataireId":"a5bbc385-220e-4ce3-9dc7-7a433d03576b","amodiataireName":"AFISA","activitySector":"other","name":"territory-196","coordinates":{"lat":4.036664631706696,"lng":9.68027953110049},"latitude":4.036664631706696,"longitude":9.68027953110049,"images":[]},{"id":"territory-326","amodiataireId":"a5bbc385-220e-4ce3-9dc7-7a433d03576b","amodiataireName":"AFISA","activitySector":"other","name":"territory-326","coordinates":{"lat":4.016525505588438,"lng":9.693280213666698},"latitude":4.016525505588438,"longitude":9.693280213666698,"images":[]},{"id":"territory-437","amodiataireId":"a5bbc385-220e-4ce3-9dc7-7a433d03576b","amodiataireName":"AFISA","activitySector":"other","name":"territory-437","coordinates":{"lat":4.047256011212848,"lng":9.68573115401842},"latitude":4.047256011212848,"longitude":9.68573115401842,"images":[]},{"id":"territory-438","amodiataireId":"a5bbc385-220e-4ce3-9dc7-7a433d03576b","amodiataireName":"AFISA","activitySector":"other","name":"territory-438","coordinates":{"lat":4.047046141852497,"lng":9.686411638581728},"latitude":4.047046141852497,"longitude":9.686411638581728,"images":[]},{"id":"territory-526","amodiataireId":"a5bbc385-220e-4ce3-9dc7-7a433d03576b","amodiataireName":"AFISA","activitySector":"other","name":"Lot 55","coordinates":{"lat":4.017759514508657,"lng":9.695189926833303},"latitude":4.017759514508657,"longitude":9.695189926833303,"images":[]},{"id":"territory-11","amodiataireId":"62d4183a-492f-4294-8f09-543c89cb76ec","amodiataireName":"AFRIMAR","activitySector":"other","name":"territory-11","coordinates":{"lat":4.028844293772886,"lng":9.676217176949311},"latitude":4.028844293772886,"longitude":9.676217176949311,"images":[]},{"id":"territory-83","amodiataireId":"9b4e7439-5eb0-4c90-affc-99e64b23bf6f","amodiataireName":"ALAGA","activitySector":"other","name":"territory-83","coordinates":{"lat":4.0230259595060724,"lng":9.669272969574113},"latitude":4.0230259595060724,"longitude":9.669272969574113,"images":[]},{"id":"territory-3","amodiataireId":"302ae95b-482d-4583-acc8-7fecc64a0534","amodiataireName":"AGL","amodiataireEmail":"agl@navipad.fr","activitySector":"other","name":"Direction Generale","coordinates":{"lat":4.032874328838755,"lng":9.682072482212337},"latitude":4.032874328838755,"longitude":9.682072482212337,"images":[]},{"id":"territory-180","amodiataireId":"302ae95b-482d-4583-acc8-7fecc64a0534","amodiataireName":"AGL","amodiataireEmail":"agl@navipad.fr","activitySector":"other","name":"02","coordinates":{"lat":4.060321528436539,"lng":9.698913767325035},"latitude":4.060321528436539,"longitude":9.698913767325035,"images":[]},{"id":"territory-183","amodiataireId":"302ae95b-482d-4583-acc8-7fecc64a0534","amodiataireName":"AGL","amodiataireEmail":"agl@navipad.fr","activitySector":"other","name":"territory-183","coordinates":{"lat":4.057890679819835,"lng":9.696078931067758},"latitude":4.057890679819835,"longitude":9.696078931067758,"images":[]},{"id":"territory-233","amodiataireId":"302ae95b-482d-4583-acc8-7fecc64a0534","amodiataireName":"AGL","amodiataireEmail":"agl@navipad.fr","activitySector":"other","name":"territory-233","coordinates":{"lat":4.0344476847790585,"lng":9.680312445738352},"latitude":4.0344476847790585,"longitude":9.680312445738352,"images":[]},{"id":"territory-234","amodiataireId":"302ae95b-482d-4583-acc8-7fecc64a0534","amodiataireName":"AGL","amodiataireEmail":"agl@navipad.fr","activitySector":"other","name":"territory-234","coordinates":{"lat":4.031601187425876,"lng":9.681582933494392},"latitude":4.031601187425876,"longitude":9.681582933494392,"images":[]},{"id":"territory-325","amodiataireId":"302ae95b-482d-4583-acc8-7fecc64a0534","amodiataireName":"AGL","amodiataireEmail":"agl@navipad.fr","activitySector":"other","name":"territory-325","coordinates":{"lat":4.025373689967936,"lng":9.67099775902503},"latitude":4.025373689967936,"longitude":9.67099775902503,"images":[]},{"id":"territory-346","amodiataireId":"302ae95b-482d-4583-acc8-7fecc64a0534","amodiataireName":"AGL","amodiataireEmail":"agl@navipad.fr","activitySector":"other","name":"territory-346","coordinates":{"lat":4.035887165871173,"lng":9.68028006052972},"latitude":4.035887165871173,"longitude":9.68028006052972,"images":[]},{"id":"territory-415","amodiataireId":"302ae95b-482d-4583-acc8-7fecc64a0534","amodiataireName":"AGL","amodiataireEmail":"agl@navipad.fr","activitySector":"other","name":"territory-415","coordinates":{"lat":4.026566445959866,"lng":9.676562475559335},"latitude":4.026566445959866,"longitude":9.676562475559335,"images":[]},{"id":"territory-420","amodiataireId":"302ae95b-482d-4583-acc8-7fecc64a0534","amodiataireName":"AGL","amodiataireEmail":"agl@navipad.fr","activitySector":"other","name":"territory-420","coordinates":{"lat":4.029330378914157,"lng":9.68048124126828},"latitude":4.029330378914157,"longitude":9.68048124126828,"images":[]},{"id":"territory-421","amodiataireId":"302ae95b-482d-4583-acc8-7fecc64a0534","amodiataireName":"AGL","amodiataireEmail":"agl@navipad.fr","activitySector":"other","name":"territory-421","coordinates":{"lat":4.0311873121029205,"lng":9.68239164960962},"latitude":4.0311873121029205,"longitude":9.68239164960962,"images":[]},{"id":"territory-422","amodiataireId":"302ae95b-482d-4583-acc8-7fecc64a0534","amodiataireName":"AGL","amodiataireEmail":"agl@navipad.fr","activitySector":"other","name":"territory-422","coordinates":{"lat":4.0263095630380406,"lng":9.669130795878036},"latitude":4.0263095630380406,"longitude":9.669130795878036,"images":[]},{"id":"territory-423","amodiataireId":"302ae95b-482d-4583-acc8-7fecc64a0534","amodiataireName":"AGL","amodiataireEmail":"agl@navipad.fr","activitySector":"other","name":"territory-423","coordinates":{"lat":4.058789155422638,"lng":9.696238712274546},"latitude":4.058789155422638,"longitude":9.696238712274546,"images":[]},{"id":"territory-497","amodiataireId":"4dfd79b7-7649-4da3-8b0f-3ef493c67a29","amodiataireName":"ALI ABBO","activitySector":"other","name":"territory-497","coordinates":{"lat":4.020659996524548,"lng":9.676821333118843},"latitude":4.020659996524548,"longitude":9.676821333118843,"images":[]},{"id":"territory-548","amodiataireId":"394ec5d4-029b-4403-8829-4ba883886829","amodiataireName":"ALUCAM","activitySector":"other","name":"territory-548","coordinates":{"lat":4.056247319155364,"lng":9.694171294772023},"latitude":4.056247319155364,"longitude":9.694171294772023,"images":[]},{"id":"territory-568","amodiataireId":"394ec5d4-029b-4403-8829-4ba883886829","amodiataireName":"ALUCAM","activitySector":"other","name":"territory-568","coordinates":{"lat":4.056297096772949,"lng":9.693342224756863},"latitude":4.056297096772949,"longitude":9.693342224756863,"images":[]},{"id":"territory-382","amodiataireId":"cbcbdcce-24c8-4dda-b4b2-29367cd92e86","amodiataireName":"AMDALE","activitySector":"other","name":"territory-382","coordinates":{"lat":4.037627928192087,"lng":9.680262473587218},"latitude":4.037627928192087,"longitude":9.680262473587218,"images":[]},{"id":"territory-21","amodiataireId":"aec7ebf7-2ca3-4428-a604-45d919abe61b","amodiataireName":"AMI","activitySector":"other","name":"territory-21","coordinates":{"lat":4.0274685937667645,"lng":9.669116293896275},"latitude":4.0274685937667645,"longitude":9.669116293896275,"images":[]},{"id":"territory-187","amodiataireId":"aec7ebf7-2ca3-4428-a604-45d919abe61b","amodiataireName":"AMI","activitySector":"other","name":"territory-187","coordinates":{"lat":4.02737022100453,"lng":9.668872782236296},"latitude":4.02737022100453,"longitude":9.668872782236296,"images":[]},{"id":"territory-414","amodiataireId":"aec7ebf7-2ca3-4428-a604-45d919abe61b","amodiataireName":"AMI","activitySector":"other","name":"territory-414","coordinates":{"lat":4.027940060163117,"lng":9.668552548763987},"latitude":4.027940060163117,"longitude":9.668552548763987,"images":[]},{"id":"territory-538","amodiataireId":"aec7ebf7-2ca3-4428-a604-45d919abe61b","amodiataireName":"AMI","activitySector":"other","name":"territory-538","coordinates":{"lat":4.027124928799512,"lng":9.668674404480466},"latitude":4.027124928799512,"longitude":9.668674404480466,"images":[]},{"id":"territory-539","amodiataireId":"aec7ebf7-2ca3-4428-a604-45d919abe61b","amodiataireName":"AMI","activitySector":"other","name":"territory-539","coordinates":{"lat":4.027218085859736,"lng":9.668823443215397},"latitude":4.027218085859736,"longitude":9.668823443215397,"images":[]},{"id":"territory-1981","amodiataireId":"aec7ebf7-2ca3-4428-a604-45d919abe61b","amodiataireName":"AMI","activitySector":"other","name":"territory-1981","coordinates":{"lat":4.027351956769402,"lng":9.668667661833526},"latitude":4.027351956769402,"longitude":9.668667661833526,"images":[]},{"id":"territory-1982","amodiataireId":"aec7ebf7-2ca3-4428-a604-45d919abe61b","amodiataireName":"AMI","activitySector":"other","name":"territory-1982","coordinates":{"lat":4.027330817929117,"lng":9.668649001420047},"latitude":4.027330817929117,"longitude":9.668649001420047,"images":[]},{"id":"territory-386","amodiataireId":"9165b475-36b8-46f3-bee8-4ea19b3f3c9b","amodiataireName":"APMT","activitySector":"other","name":"territory-386","coordinates":{"lat":4.0247500150314135,"lng":9.688708376662264},"latitude":4.0247500150314135,"longitude":9.688708376662264,"images":[]},{"id":"territory-549","amodiataireId":"9165b475-36b8-46f3-bee8-4ea19b3f3c9b","amodiataireName":"APMT","activitySector":"other","name":"territory-549","coordinates":{"lat":4.025897508659215,"lng":9.688885728204465},"latitude":4.025897508659215,"longitude":9.688885728204465,"images":[]},{"id":"territory-242","amodiataireId":"75a5c9aa-d6bf-40b7-a3fd-030d6b237c5b","amodiataireName":"ARCHI","activitySector":"other","name":"territory-242","coordinates":{"lat":4.071232078546992,"lng":9.697105405203931},"latitude":4.071232078546992,"longitude":9.697105405203931,"images":[]},{"id":"territory-562","amodiataireId":"6c0bbd3f-8e79-4539-9b13-6f183a972f0e","amodiataireName":"AREWA","activitySector":"other","name":"territory-562","coordinates":{"lat":4.011337888442475,"lng":9.685793792573607},"latitude":4.011337888442475,"longitude":9.685793792573607,"images":[]},{"id":"territory-129","amodiataireId":"57acaab2-d464-44fe-836f-6bcb79e3446a","amodiataireName":"ARNO","amodiataireEmail":"arno@test.com","activitySector":"other","name":"territory-129","coordinates":{"lat":4.027922070238368,"lng":9.674880509656365},"latitude":4.027922070238368,"longitude":9.674880509656365,"images":[]},{"id":"territory-560","amodiataireId":"57acaab2-d464-44fe-836f-6bcb79e3446a","amodiataireName":"ARNO","amodiataireEmail":"arno@test.com","activitySector":"other","name":"territory-560","coordinates":{"lat":4.027471113153096,"lng":9.674755592472575},"latitude":4.027471113153096,"longitude":9.674755592472575,"images":[]},{"id":"territory-1143","amodiataireId":"fb599611-e864-4074-a4ee-fdfeeda85298","amodiataireName":"ASSIETE FONCIERE DU PROJET DE L","activitySector":"other","name":"territory-1143","coordinates":{"lat":4.011919512582037,"lng":9.680838497416687},"latitude":4.011919512582037,"longitude":9.680838497416687,"images":[]},{"id":"territory-292","amodiataireId":"596ae4dd-f00f-4ca6-a4bf-08d2506f2488","amodiataireName":"ATC","activitySector":"other","name":"territory-292","coordinates":{"lat":4.018544387981084,"lng":9.679366979645899},"latitude":4.018544387981084,"longitude":9.679366979645899,"images":[]},{"id":"territory-578","amodiataireId":"26dca85b-f26d-4777-a50c-2d187969f8ba","amodiataireName":"ATELIERS","activitySector":"other","name":"territory-578","coordinates":{"lat":4.011620642619478,"lng":9.699048877937745},"latitude":4.011620642619478,"longitude":9.699048877937745,"images":[]},{"id":"territory-426","amodiataireId":"046fcda4-b064-4cf8-8808-02b0d0291f41","amodiataireName":"ATLANTIC","activitySector":"other","name":"territory-426","coordinates":{"lat":4.023766159798235,"lng":9.672858546832295},"latitude":4.023766159798235,"longitude":9.672858546832295,"images":[]},{"id":"territory-458","amodiataireId":"046fcda4-b064-4cf8-8808-02b0d0291f41","amodiataireName":"ATLANTIC","activitySector":"other","name":"territory-458","coordinates":{"lat":4.022524475038816,"lng":9.669257687840068},"latitude":4.022524475038816,"longitude":9.669257687840068,"images":[]},{"id":"territory-540","amodiataireId":"d760a9d5-0de5-40df-98e7-44d538319996","amodiataireName":"ATMOSPHERE 2000","activitySector":"other","name":"territory-540","coordinates":{"lat":4.02210418070518,"lng":9.669629187905285},"latitude":4.02210418070518,"longitude":9.669629187905285,"images":[]},{"id":"territory-535","amodiataireId":"36f9ea4b-5dfa-4aec-a34e-40e183d73d1d","amodiataireName":"ATRAF","activitySector":"other","name":"territory-535","coordinates":{"lat":4.02685981842561,"lng":9.681216652541798},"latitude":4.02685981842561,"longitude":9.681216652541798,"images":[]},{"id":"territory-479","amodiataireId":"b56c806a-2083-4931-ab62-934b5c1b1a7f","amodiataireName":"Non renseigné","activitySector":"other","name":"territory-479","coordinates":{"lat":4.019718613423981,"lng":9.69523109236186},"latitude":4.019718613423981,"longitude":9.69523109236186,"images":[]},{"id":"territory-943","amodiataireId":"b56c806a-2083-4931-ab62-934b5c1b1a7f","amodiataireName":"Non renseigné","activitySector":"other","name":"territory-943","coordinates":{"lat":4.019992864948988,"lng":9.695531909302275},"latitude":4.019992864948988,"longitude":9.695531909302275,"images":[]},{"id":"territory-944","amodiataireId":"b56c806a-2083-4931-ab62-934b5c1b1a7f","amodiataireName":"Non renseigné","activitySector":"other","name":"territory-944","coordinates":{"lat":4.020135312439701,"lng":9.69535699384784},"latitude":4.020135312439701,"longitude":9.69535699384784,"images":[]},{"id":"territory-151","amodiataireId":"b56c806a-2083-4931-ab62-934b5c1b1a7f","amodiataireName":"Non renseigné","activitySector":"other","name":"territory-151","coordinates":{"lat":4.0248055973769326,"lng":9.667969358435968},"latitude":4.0248055973769326,"longitude":9.667969358435968,"images":[]},{"id":"territory-154","amodiataireId":"b56c806a-2083-4931-ab62-934b5c1b1a7f","amodiataireName":"Non renseigné","activitySector":"other","name":"territory-154","coordinates":{"lat":4.025427583712365,"lng":9.685630510168764},"latitude":4.025427583712365,"longitude":9.685630510168764,"images":[]},{"id":"territory-201","amodiataireId":"b56c806a-2083-4931-ab62-934b5c1b1a7f","amodiataireName":"Non renseigné","activitySector":"other","name":"territory-201","coordinates":{"lat":4.0293339538014905,"lng":9.685331525202269},"latitude":4.0293339538014905,"longitude":9.685331525202269,"images":[]},{"id":"territory-258","amodiataireId":"b56c806a-2083-4931-ab62-934b5c1b1a7f","amodiataireName":"Non renseigné","activitySector":"other","name":"territory-258","coordinates":{"lat":4.06940163421125,"lng":9.697723175205166},"latitude":4.06940163421125,"longitude":9.697723175205166,"images":[]},{"id":"territory-473","amodiataireId":"b56c806a-2083-4931-ab62-934b5c1b1a7f","amodiataireName":"Non renseigné","activitySector":"other","name":"territory-473","coordinates":{"lat":4.023250412807302,"lng":9.670280944657707},"latitude":4.023250412807302,"longitude":9.670280944657707,"images":[]},{"id":"territory-1","amodiataireId":"b56c806a-2083-4931-ab62-934b5c1b1a7f","amodiataireName":"Non renseigné","activitySector":"other","name":"Lot 47","coordinates":{"lat":4.015517157167579,"lng":9.689788288955254},"latitude":4.015517157167579,"longitude":9.689788288955254,"images":[]},{"id":"territory-1152","amodiataireId":"b56c806a-2083-4931-ab62-934b5c1b1a7f","amodiataireName":"Non renseigné","activitySector":"other","name":"Lot 54","coordinates":{"lat":4.023610189524523,"lng":9.675555220037213},"latitude":4.023610189524523,"longitude":9.675555220037213,"images":[]},{"id":"territory-1918","amodiataireId":"b56c806a-2083-4931-ab62-934b5c1b1a7f","amodiataireName":"Non renseigné","activitySector":"other","name":"Lot 151","coordinates":{"lat":4.018330474331371,"lng":9.676069485260193},"latitude":4.018330474331371,"longitude":9.676069485260193,"images":[]},{"id":"territory-1920","amodiataireId":"b56c806a-2083-4931-ab62-934b5c1b1a7f","amodiataireName":"Non renseigné","activitySector":"other","name":"Lot 01","coordinates":{"lat":4.016121870862297,"lng":9.676940012091439},"latitude":4.016121870862297,"longitude":9.676940012091439,"images":[]},{"id":"territory-5","amodiataireId":"b56c806a-2083-4931-ab62-934b5c1b1a7f","amodiataireName":"Non renseigné","activitySector":"other","name":"Lot 58","coordinates":{"lat":4.015312697676789,"lng":9.693148699675877},"latitude":4.015312697676789,"longitude":9.693148699675877,"images":[]},{"id":"territory-537","amodiataireId":"b56c806a-2083-4931-ab62-934b5c1b1a7f","amodiataireName":"Non renseigné","activitySector":"other","name":"Lot 44","coordinates":{"lat":4.026968843745282,"lng":9.66852180379107},"latitude":4.026968843745282,"longitude":9.66852180379107,"images":[]},{"id":"territory-335","amodiataireId":"36cce890-3b98-4bf5-896c-da3835d85c2f","amodiataireName":"AZOLA","activitySector":"other","name":"territory-335","coordinates":{"lat":4.011778102734241,"lng":9.684310828190599},"latitude":4.011778102734241,"longitude":9.684310828190599,"images":[]},{"id":"territory-78","amodiataireId":"a20a40a0-e74c-464e-9886-41e1d7a3c893","amodiataireName":"BALM","activitySector":"other","name":"territory-78","coordinates":{"lat":4.01861070480302,"lng":9.68539973744455},"latitude":4.01861070480302,"longitude":9.68539973744455,"images":[]},{"id":"territory-413","amodiataireId":"91e1dc2d-c7a8-4e49-a3e8-5d98f702a104","amodiataireName":"BARAKAICE","activitySector":"other","name":"territory-413","coordinates":{"lat":4.026167201822178,"lng":9.67051623206686},"latitude":4.026167201822178,"longitude":9.67051623206686,"images":[]},{"id":"territory-86","amodiataireId":"0207a651-628c-46dd-9326-c4c393d59fa8","amodiataireName":"BEETLE","activitySector":"other","name":"territory-86","coordinates":{"lat":4.019565297864279,"lng":9.680561071201138},"latitude":4.019565297864279,"longitude":9.680561071201138,"images":[]},{"id":"territory-215","amodiataireId":"0207a651-628c-46dd-9326-c4c393d59fa8","amodiataireName":"BEETLE","activitySector":"other","name":"territory-215","coordinates":{"lat":4.064099005166387,"lng":9.701463767390516},"latitude":4.064099005166387,"longitude":9.701463767390516,"images":[]},{"id":"territory-280","amodiataireId":"1406886e-4685-481c-9578-07e4b8d6c733","amodiataireName":"BEETLE HERITAGE","activitySector":"other","name":"territory-280","coordinates":{"lat":4.062258099733096,"lng":9.699461878137004},"latitude":4.062258099733096,"longitude":9.699461878137004,"images":[]},{"id":"territory-338","amodiataireId":"bc6b83a5-ea31-453c-9090-c3eba6cf2f01","amodiataireName":"BFREST","activitySector":"other","name":"territory-338","coordinates":{"lat":4.01842552675046,"lng":9.691244132232056},"latitude":4.01842552675046,"longitude":9.691244132232056,"images":[]},{"id":"territory-1992","amodiataireId":"7a857ef1-2f95-4720-a95d-1a8cddcc43e3","amodiataireName":"BIR","activitySector":"other","name":"territory-1992","coordinates":{"lat":4.013580223291627,"lng":9.67288259853633},"latitude":4.013580223291627,"longitude":9.67288259853633,"images":[]},{"id":"territory-176","amodiataireId":"c746ce67-2b1c-49cd-9fa2-74d1c5b9b1f6","amodiataireName":"BOBO","activitySector":"other","name":"territory-176","coordinates":{"lat":4.0211285695274235,"lng":9.671463413629999},"latitude":4.0211285695274235,"longitude":9.671463413629999,"images":[]},{"id":"territory-1979","amodiataireId":"8d276c7b-99bc-4ca1-98e2-ed34b9628511","amodiataireName":"C R I Q U E D O C T","activitySector":"other","name":"territory-1979","coordinates":{"lat":4.007237871247931,"lng":9.692148545759661},"latitude":4.007237871247931,"longitude":9.692148545759661,"images":[]},{"id":"territory-521","amodiataireId":"049a8a1b-4b55-4a86-a517-33bc17cce27b","amodiataireName":"BOBO LOGISTIQUE","activitySector":"other","name":"territory-521","coordinates":{"lat":4.019396960822246,"lng":9.68828910036744},"latitude":4.019396960822246,"longitude":9.68828910036744,"images":[]},{"id":"territory-579","amodiataireId":"049a8a1b-4b55-4a86-a517-33bc17cce27b","amodiataireName":"BOBO LOGISTIQUE","activitySector":"other","name":"territory-579","coordinates":{"lat":4.019749531139204,"lng":9.688100135676175},"latitude":4.019749531139204,"longitude":9.688100135676175,"images":[]},{"id":"territory-1073","amodiataireId":"ee38731e-0038-4995-aab0-ce1ff1488c42","amodiataireName":"BOCOM INDUSTRY","activitySector":"other","name":"territory-1073","coordinates":{"lat":4.0166257062574005,"lng":9.698083246458138},"latitude":4.0166257062574005,"longitude":9.698083246458138,"images":[]},{"id":"territory-1074","amodiataireId":"ee38731e-0038-4995-aab0-ce1ff1488c42","amodiataireName":"BOCOM INDUSTRY","activitySector":"other","name":"territory-1074","coordinates":{"lat":4.0165859751963895,"lng":9.698184690213802},"latitude":4.0165859751963895,"longitude":9.698184690213802,"images":[]},{"id":"territory-1075","amodiataireId":"ee38731e-0038-4995-aab0-ce1ff1488c42","amodiataireName":"BOCOM INDUSTRY","activitySector":"other","name":"territory-1075","coordinates":{"lat":4.016532072497097,"lng":9.698261014315923},"latitude":4.016532072497097,"longitude":9.698261014315923,"images":[]},{"id":"territory-1088","amodiataireId":"ee38731e-0038-4995-aab0-ce1ff1488c42","amodiataireName":"BOCOM INDUSTRY","activitySector":"other","name":"territory-1088","coordinates":{"lat":4.0166244724279485,"lng":9.698079889100537},"latitude":4.0166244724279485,"longitude":9.698079889100537,"images":[]},{"id":"territory-1089","amodiataireId":"ee38731e-0038-4995-aab0-ce1ff1488c42","amodiataireName":"BOCOM INDUSTRY","activitySector":"other","name":"territory-1089","coordinates":{"lat":4.0166244062087095,"lng":9.698087275095617},"latitude":4.0166244062087095,"longitude":9.698087275095617,"images":[]},{"id":"territory-375","amodiataireId":"f8a9f420-e880-4d7b-9a36-2f1a74284ac1","amodiataireName":"BRAD","activitySector":"other","name":"territory-375","coordinates":{"lat":4.020642359343489,"lng":9.674228644602977},"latitude":4.020642359343489,"longitude":9.674228644602977,"images":[]},{"id":"territory-14","amodiataireId":"9b768121-25fa-4d27-a31f-8174a1702def","amodiataireName":"BUSINESS CARE","activitySector":"other","name":"territory-14","coordinates":{"lat":4.01884838381836,"lng":9.674355987174179},"latitude":4.01884838381836,"longitude":9.674355987174179,"images":[]},{"id":"territory-191","amodiataireId":"87181e1d-292e-46ec-ace5-c4b476a09a16","amodiataireName":"C A M E C R U S","activitySector":"other","name":"territory-191","coordinates":{"lat":4.027176572761524,"lng":9.669601691858045},"latitude":4.027176572761524,"longitude":9.669601691858045,"images":[]},{"id":"territory-454","amodiataireId":"bfa3996c-01e2-40da-9ef1-622a400786e1","amodiataireName":"C.N.I.C.","activitySector":"other","name":"territory-454","coordinates":{"lat":4.064673432919754,"lng":9.701652994177248},"latitude":4.064673432919754,"longitude":9.701652994177248,"images":[]},{"id":"territory-355","amodiataireId":"7413e6fd-9c89-4a9c-9e30-1be5f1820c16","amodiataireName":"CA.TRANSIT","activitySector":"other","name":"territory-355","coordinates":{"lat":4.0230353773676155,"lng":9.669582455715261},"latitude":4.0230353773676155,"longitude":9.669582455715261,"images":[]},{"id":"territory-490","amodiataireId":"7413e6fd-9c89-4a9c-9e30-1be5f1820c16","amodiataireName":"CA.TRANSIT","activitySector":"other","name":"territory-490","coordinates":{"lat":4.023095116364604,"lng":9.66974743308557},"latitude":4.023095116364604,"longitude":9.66974743308557,"images":[]},{"id":"territory-294","amodiataireId":"b8d9b217-579c-4420-ac39-b8670f278145","amodiataireName":"CABINET D'AVOCAT","activitySector":"other","name":"territory-294","coordinates":{"lat":4.018665511988892,"lng":9.678831048073276},"latitude":4.018665511988892,"longitude":9.678831048073276,"images":[]},{"id":"territory-147","amodiataireId":"4175a977-4bf1-4da7-829f-68dd675bbc6e","amodiataireName":"CAFSHIP","activitySector":"other","name":"territory-147","coordinates":{"lat":4.023410801174224,"lng":9.687250644579002},"latitude":4.023410801174224,"longitude":9.687250644579002,"images":[]},{"id":"territory-57","amodiataireId":"d68a9bd2-a3b4-4ab6-8966-0c24fbcb1b6c","amodiataireName":"CALIM SARL","activitySector":"other","name":"territory-57","coordinates":{"lat":4.064015889155298,"lng":9.701373449643834},"latitude":4.064015889155298,"longitude":9.701373449643834,"images":[]},{"id":"territory-42","amodiataireId":"065b696d-ae98-48fb-9a52-b92da1e51b8f","amodiataireName":"CAM EXPRESS","activitySector":"other","name":"territory-42","coordinates":{"lat":4.024975239827855,"lng":9.667850651373108},"latitude":4.024975239827855,"longitude":9.667850651373108,"images":[]},{"id":"territory-399","amodiataireId":"7f4b54fc-2026-43eb-9cff-23fd5f18156a","amodiataireName":"CAMALCO","activitySector":"other","name":"territory-399","coordinates":{"lat":4.035064439910647,"lng":9.675771111191098},"latitude":4.035064439910647,"longitude":9.675771111191098,"images":[]},{"id":"territory-542","amodiataireId":"90148387-8f60-41dc-bac1-ff8cee80f45a","amodiataireName":"CAMERFISH","activitySector":"other","name":"territory-542","coordinates":{"lat":4.062088101757234,"lng":9.69904756236422},"latitude":4.062088101757234,"longitude":9.69904756236422,"images":[]},{"id":"territory-1186","amodiataireId":"03a2f8ac-4a83-4347-8067-961df21d0c72","amodiataireName":"CANAL 2","activitySector":"other","name":"territory-1186","coordinates":{"lat":4.015802440379777,"lng":9.69712051531807},"latitude":4.015802440379777,"longitude":9.69712051531807,"images":[]},{"id":"territory-388","amodiataireId":"0cab13c0-293f-4edf-90c8-7f0df46ccd48","amodiataireName":"CAMAS","activitySector":"other","name":"territory-388","coordinates":{"lat":4.020552394259369,"lng":9.672293980405723},"latitude":4.020552394259369,"longitude":9.672293980405723,"images":[]},{"id":"territory-474","amodiataireId":"0cab13c0-293f-4edf-90c8-7f0df46ccd48","amodiataireName":"CAMAS","activitySector":"other","name":"territory-474","coordinates":{"lat":4.0225074014477435,"lng":9.67061950021145},"latitude":4.0225074014477435,"longitude":9.67061950021145,"images":[]},{"id":"territory-32","amodiataireId":"0cab13c0-293f-4edf-90c8-7f0df46ccd48","amodiataireName":"CAMAS","activitySector":"other","name":"Lot 30","coordinates":{"lat":4.0132406413665445,"lng":9.677011411841187},"latitude":4.0132406413665445,"longitude":9.677011411841187,"images":[]},{"id":"lot-1765618792424","amodiataireId":"0cab13c0-293f-4edf-90c8-7f0df46ccd48","amodiataireName":"CAMAS","activitySector":"other","name":"lot-93","coordinates":{"lat":4.0220995277533245,"lng":9.681023088836515},"latitude":4.0220995277533245,"longitude":9.681023088836515,"images":[]},{"id":"territory-13","amodiataireId":"9c803728-79a6-4f5f-a7e4-cfcee0638935","amodiataireName":"CAPEF","activitySector":"other","name":"territory-13","coordinates":{"lat":4.01910546117118,"lng":9.673068205148747},"latitude":4.01910546117118,"longitude":9.673068205148747,"images":[]},{"id":"territory-461","amodiataireId":"61d27d97-6aeb-490f-be47-3ee29cde1e83","amodiataireName":"CENTRE MEDICO","activitySector":"other","name":"territory-461","coordinates":{"lat":4.066127773437453,"lng":9.703785073374341},"latitude":4.066127773437453,"longitude":9.703785073374341,"images":[]},{"id":"territory-223","amodiataireId":"bf2d19c6-eabe-4cf2-8561-b3fd978c0ebb","amodiataireName":"GENDARMERIE","amodiataireEmail":"amodiataire_1773221671491_524hyp@navipad.local","activitySector":"other","name":"territory-223","coordinates":{"lat":4.062683706942579,"lng":9.701338736985601},"latitude":4.062683706942579,"longitude":9.701338736985601,"images":[]},{"id":"territory-506","amodiataireId":"ccf2a2ec-7d72-4625-891c-3fa49dfa42e4","amodiataireName":"CHAMBRE DE COMMERCE","activitySector":"other","name":"territory-506","coordinates":{"lat":4.014367903275898,"lng":9.678238231775202},"latitude":4.014367903275898,"longitude":9.678238231775202,"images":[]},{"id":"territory-230","amodiataireId":"94867d4c-94d0-4926-a542-6ebd36e7839f","amodiataireName":"CLGG","activitySector":"other","name":"territory-230","coordinates":{"lat":4.035828078156725,"lng":9.680988298340717},"latitude":4.035828078156725,"longitude":9.680988298340717,"images":[]},{"id":"territory-232","amodiataireId":"94867d4c-94d0-4926-a542-6ebd36e7839f","amodiataireName":"CLGG","activitySector":"other","name":"territory-232","coordinates":{"lat":4.034447199299457,"lng":9.681019974420956},"latitude":4.034447199299457,"longitude":9.681019974420956,"images":[]},{"id":"territory-356","amodiataireId":"94867d4c-94d0-4926-a542-6ebd36e7839f","amodiataireName":"CLGG","activitySector":"other","name":"territory-356","coordinates":{"lat":4.032743615399811,"lng":9.680213204596233},"latitude":4.032743615399811,"longitude":9.680213204596233,"images":[]},{"id":"territory-359","amodiataireId":"94867d4c-94d0-4926-a542-6ebd36e7839f","amodiataireName":"CLGG","activitySector":"other","name":"territory-359","coordinates":{"lat":4.033078759089498,"lng":9.68139143575291},"latitude":4.033078759089498,"longitude":9.68139143575291,"images":[]},{"id":"territory-138","amodiataireId":"94867d4c-94d0-4926-a542-6ebd36e7839f","amodiataireName":"CLGG","activitySector":"other","name":"territory-138","coordinates":{"lat":4.019474353989751,"lng":9.683951526785364},"latitude":4.019474353989751,"longitude":9.683951526785364,"images":[]},{"id":"bat_8f0dc44a-9c2d-4463-a047-be75735778ff_b732b122","amodiataireId":"94867d4c-94d0-4926-a542-6ebd36e7839f","amodiataireName":"CLGG","activitySector":"other","name":"Excel-19","coordinates":{"lat":4.019832801884219,"lng":9.68371440745716},"latitude":4.019832801884219,"longitude":9.68371440745716,"images":[]},{"id":"territory-268","amodiataireId":"c81cbb54-060b-4d09-89b4-cd8aca00af28","amodiataireName":"CHRONOTRANS","activitySector":"other","name":"territory-268","coordinates":{"lat":4.021399973364144,"lng":9.67995501121246},"latitude":4.021399973364144,"longitude":9.67995501121246,"images":[]},{"id":"territory-94","amodiataireId":"8855d976-19ad-4358-8243-66ab3fdee872","amodiataireName":"CIMED","activitySector":"other","name":"territory-94","coordinates":{"lat":4.020747623378692,"lng":9.678838163729036},"latitude":4.020747623378692,"longitude":9.678838163729036,"images":[]},{"id":"territory-447","amodiataireId":"16a7594d-e3a8-4809-8779-a0d3062a1856","amodiataireName":"CIMENCAM","activitySector":"other","name":"territory-447","coordinates":{"lat":4.067740781010026,"lng":9.691068445228247},"latitude":4.067740781010026,"longitude":9.691068445228247,"images":[]},{"id":"territory-177","amodiataireId":"d337b485-5e96-410c-8acf-d36bea8a834e","amodiataireName":"CIS","activitySector":"other","name":"territory-177","coordinates":{"lat":4.031885544943247,"lng":9.680224564259007},"latitude":4.031885544943247,"longitude":9.680224564259007,"images":[]},{"id":"territory-207","amodiataireId":"2b8b01cc-8372-4e91-ad27-a796d71f71e9","amodiataireName":"CITTMA","activitySector":"other","name":"territory-207","coordinates":{"lat":4.0304312767703925,"lng":9.681609774288097},"latitude":4.0304312767703925,"longitude":9.681609774288097,"images":[]},{"id":"territory-389","amodiataireId":"ab41e35c-f217-4f60-af64-d8ee30367194","amodiataireName":"COFIL","activitySector":"other","name":"territory-389","coordinates":{"lat":4.019711096085129,"lng":9.672469679485854},"latitude":4.019711096085129,"longitude":9.672469679485854,"images":[]},{"id":"territory-171","amodiataireId":"25fb8772-56d0-4b13-8704-ef49ea4e8e27","amodiataireName":"COGENI","activitySector":"other","name":"territory-171","coordinates":{"lat":4.027421227305518,"lng":9.680526117522565},"latitude":4.027421227305518,"longitude":9.680526117522565,"images":[]},{"id":"territory-1990","amodiataireId":"25fb8772-56d0-4b13-8704-ef49ea4e8e27","amodiataireName":"COGENI","activitySector":"other","name":"territory-1990","coordinates":{"lat":4.027671604012924,"lng":9.684208361471649},"latitude":4.027671604012924,"longitude":9.684208361471649,"images":[]},{"id":"territory-1991","amodiataireId":"25fb8772-56d0-4b13-8704-ef49ea4e8e27","amodiataireName":"COGENI","activitySector":"other","name":"territory-1991","coordinates":{"lat":4.027014655878409,"lng":9.683358419624383},"latitude":4.027014655878409,"longitude":9.683358419624383,"images":[]},{"id":"territory-332","amodiataireId":"c8e3fafd-c03f-452e-8561-a50d3ee5dcb0","amodiataireName":"COLOR","activitySector":"other","name":"territory-332","coordinates":{"lat":4.015954523588397,"lng":9.680704266886071},"latitude":4.015954523588397,"longitude":9.680704266886071,"images":[]},{"id":"territory-221","amodiataireId":"fe537512-0462-4f06-a786-27c27cd4da22","amodiataireName":"CORLEY","activitySector":"other","name":"territory-221","coordinates":{"lat":4.026439218873138,"lng":9.669667672548144},"latitude":4.026439218873138,"longitude":9.669667672548144,"images":[]},{"id":"territory-132","amodiataireId":"9130a95d-d4ba-416e-a41e-c9093c568470","amodiataireName":"DJOULAIHATOU","activitySector":"other","name":"territory-132","coordinates":{"lat":4.022668426547848,"lng":9.687924297342557},"latitude":4.022668426547848,"longitude":9.687924297342557,"images":[]},{"id":"territory-425","amodiataireId":"800330fc-8729-48a2-ba72-ae44801fec92","amodiataireName":"COTCO","activitySector":"other","name":"territory-425","coordinates":{"lat":4.029398961323147,"lng":9.684249837091294},"latitude":4.029398961323147,"longitude":9.684249837091294,"images":[]},{"id":"territory-352","amodiataireId":"5afd0de1-5dfd-4b78-bde5-1ca80f286eb9","amodiataireName":"COTE D'AZUR","activitySector":"other","name":"territory-352","coordinates":{"lat":4.0241105087437585,"lng":9.668378551029173},"latitude":4.0241105087437585,"longitude":9.668378551029173,"images":[]},{"id":"territory-393","amodiataireId":"f37976a4-01ae-49af-b28d-e17893adca5d","amodiataireName":"COTRAF","activitySector":"other","name":"territory-393","coordinates":{"lat":4.019568681347958,"lng":9.677623451102438},"latitude":4.019568681347958,"longitude":9.677623451102438,"images":[]},{"id":"territory-319","amodiataireId":"214c988f-4ec5-40a5-9ddd-723025c30541","amodiataireName":"CPW","activitySector":"other","name":"territory-319","coordinates":{"lat":4.009987429682181,"lng":9.680688871847627},"latitude":4.009987429682181,"longitude":9.680688871847627,"images":[]},{"id":"territory-1183","amodiataireId":"23806c70-0ccd-419d-b3de-3ae2890faaac","amodiataireName":"CUD","activitySector":"other","name":"territory-1183","coordinates":{"lat":4.014282905313114,"lng":9.697083274765466},"latitude":4.014282905313114,"longitude":9.697083274765466,"images":[]},{"id":"territory-383","amodiataireId":"72bf97dd-8bc4-4f08-9f79-326f34cd28a5","amodiataireName":"DOUALA MALL","activitySector":"other","name":"territory-383","coordinates":{"lat":4.016284696052806,"lng":9.6992615497013},"latitude":4.016284696052806,"longitude":9.6992615497013,"images":[]},{"id":"territory-919","amodiataireId":"72bf97dd-8bc4-4f08-9f79-326f34cd28a5","amodiataireName":"DOUALA MALL","activitySector":"other","name":"territory-919","coordinates":{"lat":4.016818614256611,"lng":9.699913542271258},"latitude":4.016818614256611,"longitude":9.699913542271258,"images":[]},{"id":"territory-143","amodiataireId":"65653414-5552-431f-a6d6-4c2dc8c79568","amodiataireName":"CUF","activitySector":"other","name":"territory-143","coordinates":{"lat":4.0231467716426845,"lng":9.685805185158905},"latitude":4.0231467716426845,"longitude":9.685805185158905,"images":[]},{"id":"territory-262","amodiataireId":"65653414-5552-431f-a6d6-4c2dc8c79568","amodiataireName":"CUF","activitySector":"other","name":"territory-262","coordinates":{"lat":4.020660716698678,"lng":9.67366508874933},"latitude":4.020660716698678,"longitude":9.67366508874933,"images":[]},{"id":"territory-403","amodiataireId":"d819134b-adbd-400d-a511-c4d3a96d72f4","amodiataireName":"CYGOGNE","activitySector":"other","name":"territory-403","coordinates":{"lat":4.016585076256604,"lng":9.69143290704665},"latitude":4.016585076256604,"longitude":9.69143290704665,"images":[]},{"id":"territory-240","amodiataireId":"eec806bc-f6f7-400a-ae05-00e4c9a94580","amodiataireName":"DANGOTE","activitySector":"other","name":"territory-240","coordinates":{"lat":4.068226987040819,"lng":9.696677115951534},"latitude":4.068226987040819,"longitude":9.696677115951534,"images":[]},{"id":"territory-313","amodiataireId":"eec806bc-f6f7-400a-ae05-00e4c9a94580","amodiataireName":"DANGOTE","activitySector":"other","name":"territory-313","coordinates":{"lat":4.067883094826881,"lng":9.698069988625397},"latitude":4.067883094826881,"longitude":9.698069988625397,"images":[]},{"id":"territory-314","amodiataireId":"eec806bc-f6f7-400a-ae05-00e4c9a94580","amodiataireName":"DANGOTE","activitySector":"other","name":"territory-314","coordinates":{"lat":4.0707271147242565,"lng":9.697154027305467},"latitude":4.0707271147242565,"longitude":9.697154027305467,"images":[]},{"id":"territory-931","amodiataireId":"2e29ff99-f6fa-402b-9a8a-2a0616eefc3e","amodiataireName":"DAVID","activitySector":"other","name":"territory-931","coordinates":{"lat":4.01837191067134,"lng":9.697697545300544},"latitude":4.01837191067134,"longitude":9.697697545300544,"images":[]},{"id":"territory-300","amodiataireId":"48fa9840-84eb-413b-b883-1531d82e9d43","amodiataireName":"DJATOU","activitySector":"other","name":"territory-300","coordinates":{"lat":4.0200708202247215,"lng":9.671644494681816},"latitude":4.0200708202247215,"longitude":9.671644494681816,"images":[]},{"id":"territory-26","amodiataireId":"9d6e3162-edf4-49f1-8342-20bb125b25ae","amodiataireName":"DOUALA NEGOCE","activitySector":"other","name":"territory-26","coordinates":{"lat":4.014394437884805,"lng":9.675089065463258},"latitude":4.014394437884805,"longitude":9.675089065463258,"images":[]},{"id":"territory-238","amodiataireId":"6cd92c3b-1c56-46aa-b0bb-f91b453e6d12","amodiataireName":"DPS","activitySector":"other","name":"territory-238","coordinates":{"lat":4.023674810254387,"lng":9.69139537223118},"latitude":4.023674810254387,"longitude":9.69139537223118,"images":[]},{"id":"territory-565","amodiataireId":"6cd92c3b-1c56-46aa-b0bb-f91b453e6d12","amodiataireName":"DPS","activitySector":"other","name":"territory-565","coordinates":{"lat":4.020795129421553,"lng":9.671731778989276},"latitude":4.020795129421553,"longitude":9.671731778989276,"images":[]},{"id":"territory-247","amodiataireId":"c7f1e38b-4f35-424d-ab40-78a785056db1","amodiataireName":"EAGLE","activitySector":"other","name":"territory-247","coordinates":{"lat":4.0697490186929866,"lng":9.698245420186499},"latitude":4.0697490186929866,"longitude":9.698245420186499,"images":[]},{"id":"territory-287","amodiataireId":"a7ab446f-6a7c-4b5d-a860-ab553d26f725","amodiataireName":"EBOBO","activitySector":"other","name":"territory-287","coordinates":{"lat":4.032365934136739,"lng":9.683496567334473},"latitude":4.032365934136739,"longitude":9.683496567334473,"images":[]},{"id":"territory-460","amodiataireId":"72ededae-e9ba-4dcc-9647-f62f275f72cd","amodiataireName":"EDEA-DOUALA","activitySector":"other","name":"territory-460","coordinates":{"lat":4.066615319187139,"lng":9.703354710453793},"latitude":4.066615319187139,"longitude":9.703354710453793,"images":[]},{"id":"territory-484","amodiataireId":"60898bd9-5435-4926-8ea0-f78f418f5f88","amodiataireName":"EGCS","activitySector":"other","name":"territory-484","coordinates":{"lat":4.01267550770273,"lng":9.68937629074895},"latitude":4.01267550770273,"longitude":9.68937629074895,"images":[]},{"id":"territory-434","amodiataireId":"22d00e89-b881-419c-889f-a562ac0eac09","amodiataireName":"EGIN'S","activitySector":"other","name":"territory-434","coordinates":{"lat":4.056694214984546,"lng":9.694638547692408},"latitude":4.056694214984546,"longitude":9.694638547692408,"images":[]},{"id":"territory-23","amodiataireId":"db5b5e15-1f8e-4c6e-a069-b2195c75a88e","amodiataireName":"EGINS","activitySector":"other","name":"territory-23","coordinates":{"lat":4.015182863590665,"lng":9.676037351110608},"latitude":4.015182863590665,"longitude":9.676037351110608,"images":[]},{"id":"territory-112","amodiataireId":"9f00cf09-e027-43a8-acc2-5ffee47c516e","amodiataireName":"ELATE","activitySector":"other","name":"territory-112","coordinates":{"lat":4.021149689924998,"lng":9.670585668472338},"latitude":4.021149689924998,"longitude":9.670585668472338,"images":[]},{"id":"territory-197","amodiataireId":"92737528-2cb8-4042-9021-504e67ed82b2","amodiataireName":"EMAKO","activitySector":"other","name":"territory-197","coordinates":{"lat":4.029406666640782,"lng":9.686383354864017},"latitude":4.029406666640782,"longitude":9.686383354864017,"images":[]},{"id":"territory-22","amodiataireId":"0d49b4ba-9902-4b90-900e-f4d166d52b60","amodiataireName":"ENCOBAT","activitySector":"other","name":"territory-22","coordinates":{"lat":4.015093606696775,"lng":9.67696052898575},"latitude":4.015093606696775,"longitude":9.67696052898575,"images":[]},{"id":"territory-159","amodiataireId":"248fcca3-a88f-4c25-a007-c34a36edc7b9","amodiataireName":"EST TIL","activitySector":"other","name":"territory-159","coordinates":{"lat":4.022213029450832,"lng":9.673914433358823},"latitude":4.022213029450832,"longitude":9.673914433358823,"images":[]},{"id":"territory-354","amodiataireId":"3e243bf7-a7a7-4afe-9fc4-bf9c71db08b7","amodiataireName":"ETEKI","activitySector":"other","name":"territory-354","coordinates":{"lat":4.025529134712308,"lng":9.667281061811206},"latitude":4.025529134712308,"longitude":9.667281061811206,"images":[]},{"id":"territory-353","amodiataireId":"63dddd66-420a-4707-926f-e2f6ce66376b","amodiataireName":"ETS MAKOMBE","activitySector":"other","name":"territory-353","coordinates":{"lat":4.024214941283011,"lng":9.66833138815791},"latitude":4.024214941283011,"longitude":9.66833138815791,"images":[]},{"id":"territory-451","amodiataireId":"63dddd66-420a-4707-926f-e2f6ce66376b","amodiataireName":"ETS MAKOMBE","activitySector":"other","name":"territory-451","coordinates":{"lat":4.024328669354665,"lng":9.668248240802873},"latitude":4.024328669354665,"longitude":9.668248240802873,"images":[]},{"id":"territory-229","amodiataireId":"ebb96b46-ba7c-40b3-9228-d8a9c1235e85","amodiataireName":"ETS SAHARI","activitySector":"other","name":"territory-229","coordinates":{"lat":4.037977587896929,"lng":9.680795023119982},"latitude":4.037977587896929,"longitude":9.680795023119982,"images":[]},{"id":"territory-277","amodiataireId":"79132cb1-00cd-45e7-8c00-2bcbc1c77670","amodiataireName":"FARD NORD","activitySector":"other","name":"territory-277","coordinates":{"lat":4.021657227930798,"lng":9.673830599627797},"latitude":4.021657227930798,"longitude":9.673830599627797,"images":[]},{"id":"territory-329","amodiataireId":"79132cb1-00cd-45e7-8c00-2bcbc1c77670","amodiataireName":"FARD NORD","activitySector":"other","name":"territory-329","coordinates":{"lat":4.0178274273529695,"lng":9.679880289147906},"latitude":4.0178274273529695,"longitude":9.679880289147906,"images":[]},{"id":"territory-541","amodiataireId":"6d6a1664-fdc4-40cd-8968-89f8506eb474","amodiataireName":"FISHCAM","activitySector":"other","name":"territory-541","coordinates":{"lat":4.062106239617502,"lng":9.699745074768396},"latitude":4.062106239617502,"longitude":9.699745074768396,"images":[]},{"id":"territory-394","amodiataireId":"19dc6f4d-5118-470d-b7a8-df43213ac0d9","amodiataireName":"FOB'S","activitySector":"other","name":"territory-394","coordinates":{"lat":4.016969526516351,"lng":9.674473675539684},"latitude":4.016969526516351,"longitude":9.674473675539684,"images":[]},{"id":"territory-275","amodiataireId":"c63837e8-6e48-4625-8fd9-e55eb043b2c7","amodiataireName":"FOKOTO","activitySector":"other","name":"territory-275","coordinates":{"lat":4.024330239637851,"lng":9.687712427325065},"latitude":4.024330239637851,"longitude":9.687712427325065,"images":[]},{"id":"territory-457","amodiataireId":"1db450a6-9dd9-4206-8cbf-e6ae11a918ee","amodiataireName":"FORTRANS","activitySector":"other","name":"territory-457","coordinates":{"lat":4.013712991806704,"lng":9.68685800608712},"latitude":4.013712991806704,"longitude":9.68685800608712,"images":[]},{"id":"lot-1765785568307","amodiataireId":"1db450a6-9dd9-4206-8cbf-e6ae11a918ee","amodiataireName":"FORTRANS","activitySector":"other","name":"lot-30","coordinates":{"lat":4.020367179170213,"lng":9.689536662655012},"latitude":4.020367179170213,"longitude":9.689536662655012,"images":[]},{"id":"territory-412","amodiataireId":"f8a6a7c3-d54b-46f9-af2b-1b4f175a763d","amodiataireName":"FT","activitySector":"other","name":"territory-412","coordinates":{"lat":4.066946854164586,"lng":9.701332862672121},"latitude":4.066946854164586,"longitude":9.701332862672121,"images":[]},{"id":"territory-564","amodiataireId":"5699b558-8dbe-4a56-b2b5-b32db1e3896c","amodiataireName":"G.F.S","activitySector":"other","name":"territory-564","coordinates":{"lat":4.018280830160602,"lng":9.679185863624985},"latitude":4.018280830160602,"longitude":9.679185863624985,"images":[]},{"id":"territory-486","amodiataireId":"79572a77-dd60-4971-954f-1977f336f0ca","amodiataireName":"G2BI","activitySector":"other","name":"territory-486","coordinates":{"lat":4.014989226600715,"lng":9.686693360466336},"latitude":4.014989226600715,"longitude":9.686693360466336,"images":[]},{"id":"territory-1188","amodiataireId":"8b88b7e5-6faf-4ffe-8785-5ab86edd0ded","amodiataireName":"GABRIEL ET FILS","activitySector":"other","name":"territory-1188","coordinates":{"lat":4.014519670113375,"lng":9.696575507649191},"latitude":4.014519670113375,"longitude":9.696575507649191,"images":[]},{"id":"territory-266","amodiataireId":"505e840a-718e-4e89-b904-2a45625a6f1d","amodiataireName":"GELAUCAM","activitySector":"other","name":"territory-266","coordinates":{"lat":4.017907849694125,"lng":9.68165747015611},"latitude":4.017907849694125,"longitude":9.68165747015611,"images":[]},{"id":"territory-174","amodiataireId":"58580a42-2f37-4ee7-8f4a-bd957cce44ef","amodiataireName":"GLOBAL","activitySector":"other","name":"territory-174","coordinates":{"lat":4.013991300588398,"lng":9.682142772808804},"latitude":4.013991300588398,"longitude":9.682142772808804,"images":[]},{"id":"territory-505","amodiataireId":"58580a42-2f37-4ee7-8f4a-bd957cce44ef","amodiataireName":"GLOBAL","activitySector":"other","name":"territory-505","coordinates":{"lat":4.011363209709137,"lng":9.683793205878883},"latitude":4.011363209709137,"longitude":9.683793205878883,"images":[]},{"id":"territory-561","amodiataireId":"58580a42-2f37-4ee7-8f4a-bd957cce44ef","amodiataireName":"GLOBAL","activitySector":"other","name":"territory-561","coordinates":{"lat":4.026737164879059,"lng":9.670524548645634},"latitude":4.026737164879059,"longitude":9.670524548645634,"images":[]},{"id":"territory-284","amodiataireId":"ed614152-7e0b-4d03-a40d-6c49337221df","amodiataireName":"GLOBAL OUTSOURCING","activitySector":"other","name":"territory-284","coordinates":{"lat":4.023947505274163,"lng":9.685313651741527},"latitude":4.023947505274163,"longitude":9.685313651741527,"images":[]},{"id":"territory-130","amodiataireId":"72c3eb72-c1d2-42f4-bb74-aed38e210e61","amodiataireName":"GLOBAL SERVICES","activitySector":"other","name":"territory-130","coordinates":{"lat":4.020271425194036,"lng":9.684343074404207},"latitude":4.020271425194036,"longitude":9.684343074404207,"images":[]},{"id":"territory-365","amodiataireId":"5c044f65-87c1-4cf0-9975-30cea8db89ff","amodiataireName":"GLOBAL STORE","activitySector":"other","name":"territory-365","coordinates":{"lat":4.016716065502713,"lng":9.672662297279198},"latitude":4.016716065502713,"longitude":9.672662297279198,"images":[]},{"id":"territory-218","amodiataireId":"16e82d37-97fe-4af2-9d4b-e80577a78141","amodiataireName":"GPM","activitySector":"other","name":"territory-218","coordinates":{"lat":4.0662937905866965,"lng":9.70250623603086},"latitude":4.0662937905866965,"longitude":9.70250623603086,"images":[]},{"id":"territory-574","amodiataireId":"09c6614b-cb6c-441e-a35a-096f042a3bbf","amodiataireName":"GLOBAL TRADE","activitySector":"other","name":"territory-574","coordinates":{"lat":4.012130780338191,"lng":9.690407611234319},"latitude":4.012130780338191,"longitude":9.690407611234319,"images":[]},{"id":"territory-380","amodiataireId":"2934640f-7655-4767-b53a-99c88ab178c9","amodiataireName":"GMT","activitySector":"other","name":"territory-380","coordinates":{"lat":4.0668126075281,"lng":9.701337830463325},"latitude":4.0668126075281,"longitude":9.701337830463325,"images":[]},{"id":"territory-373","amodiataireId":"89b9a1a1-abe8-450a-ab61-35838b9c8589","amodiataireName":"GMTE","activitySector":"other","name":"territory-373","coordinates":{"lat":4.018344137909324,"lng":9.671477440307115},"latitude":4.018344137909324,"longitude":9.671477440307115,"images":[]},{"id":"territory-12","amodiataireId":"00e7dd1b-f6d7-40c4-b8ce-ca6a191bce85","amodiataireName":"GP KADJI","activitySector":"other","name":"territory-12","coordinates":{"lat":4.03289580177186,"lng":9.682714644036249},"latitude":4.03289580177186,"longitude":9.682714644036249,"images":[]},{"id":"territory-210","amodiataireId":"69761f93-3040-42e4-8e26-5986aa5796cb","amodiataireName":"GPAC","activitySector":"other","name":"territory-210","coordinates":{"lat":4.069800520174197,"lng":9.696584171424973},"latitude":4.069800520174197,"longitude":9.696584171424973,"images":[]},{"id":"territory-482","amodiataireId":"69761f93-3040-42e4-8e26-5986aa5796cb","amodiataireName":"GPAC","activitySector":"other","name":"territory-482","coordinates":{"lat":4.041025973609346,"lng":9.682770975842166},"latitude":4.041025973609346,"longitude":9.682770975842166,"images":[]},{"id":"territory-1205","amodiataireId":"a5da7228-c6d9-4d5b-802e-b217c7248f8f","amodiataireName":"GRAND MOULIN","activitySector":"other","name":"territory-1205","coordinates":{"lat":4.043517803322577,"lng":9.682764745396364},"latitude":4.043517803322577,"longitude":9.682764745396364,"images":[]},{"id":"territory-340","amodiataireId":"31bb854c-d66d-41f4-9671-de3ce66e3507","amodiataireName":"GRANITE & CO","activitySector":"other","name":"territory-340","coordinates":{"lat":4.019115490443895,"lng":9.693764822906289},"latitude":4.019115490443895,"longitude":9.693764822906289,"images":[]},{"id":"territory-405","amodiataireId":"afeb1cee-e563-4ce9-b660-6d8054ae6bf9","amodiataireName":"GRC","activitySector":"other","name":"territory-405","coordinates":{"lat":4.013273201634793,"lng":9.685847206210216},"latitude":4.013273201634793,"longitude":9.685847206210216,"images":[]},{"id":"territory-469","amodiataireId":"b4dcf1dd-2ff0-4db5-96b3-4f8fe0a44d26","amodiataireName":"GRP","activitySector":"other","name":"territory-469","coordinates":{"lat":4.012804928987887,"lng":9.686099172857395},"latitude":4.012804928987887,"longitude":9.686099172857395,"images":[]},{"id":"territory-145","amodiataireId":"1c8a430e-4d3e-4694-9308-305adb59fd82","amodiataireName":"GTA","activitySector":"other","name":"territory-145","coordinates":{"lat":4.0229620064025,"lng":9.686754528924178},"latitude":4.0229620064025,"longitude":9.686754528924178,"images":[]},{"id":"territory-550","amodiataireId":"ee92a583-2bf8-4200-ac19-7bd10105fd36","amodiataireName":"GULF","activitySector":"other","name":"territory-550","coordinates":{"lat":4.027645789171012,"lng":9.669141366213037},"latitude":4.027645789171012,"longitude":9.669141366213037,"images":[]},{"id":"territory-213","amodiataireId":"d67896b9-9590-42ce-a065-fa567a74c176","amodiataireName":"GULF-FISHERIES","activitySector":"other","name":"territory-213","coordinates":{"lat":4.063988076655481,"lng":9.701828326726858},"latitude":4.063988076655481,"longitude":9.701828326726858,"images":[]},{"id":"territory-39","amodiataireId":"9e54790b-5757-46e2-852c-2c5d97c4c79d","amodiataireName":"HALLIBURTON","activitySector":"other","name":"territory-39","coordinates":{"lat":4.0261890680605,"lng":9.668504469343741},"latitude":4.0261890680605,"longitude":9.668504469343741,"images":[]},{"id":"territory-351","amodiataireId":"eae6eede-572e-4514-a857-3d52629fb2a5","amodiataireName":"HANGAR GIE ENTRAIDE","activitySector":"other","name":"territory-351","coordinates":{"lat":4.02434678153145,"lng":9.668522889859878},"latitude":4.02434678153145,"longitude":9.668522889859878,"images":[]},{"id":"territory-1904","amodiataireId":"eae6eede-572e-4514-a857-3d52629fb2a5","amodiataireName":"HANGAR GIE ENTRAIDE","activitySector":"other","name":"territory-1904","coordinates":{"lat":4.024362877096319,"lng":9.668489014140658},"latitude":4.024362877096319,"longitude":9.668489014140658,"images":[]},{"id":"territory-1906","amodiataireId":"eae6eede-572e-4514-a857-3d52629fb2a5","amodiataireName":"HANGAR GIE ENTRAIDE","activitySector":"other","name":"territory-1906","coordinates":{"lat":4.024362877096319,"lng":9.668489014140658},"latitude":4.024362877096319,"longitude":9.668489014140658,"images":[]},{"id":"territory-472","amodiataireId":"3c65d7ff-2783-4737-828b-f78b78f23152","amodiataireName":"HAPAG-LLYOD","activitySector":"other","name":"territory-472","coordinates":{"lat":4.023770268351221,"lng":9.670895393884123},"latitude":4.023770268351221,"longitude":9.670895393884123,"images":[]},{"id":"territory-485","amodiataireId":"cda9b792-eaba-49db-8636-b05ee3a6325e","amodiataireName":"HARPER PETROLEUM","activitySector":"other","name":"territory-485","coordinates":{"lat":4.012146286942766,"lng":9.683530984435766},"latitude":4.012146286942766,"longitude":9.683530984435766,"images":[]},{"id":"territory-478","amodiataireId":"058f41d6-7a6c-4c80-898b-21632dcba5a4","amodiataireName":"HITAS","activitySector":"other","name":"territory-478","coordinates":{"lat":4.01320850674318,"lng":9.690897781273131},"latitude":4.01320850674318,"longitude":9.690897781273131,"images":[]},{"id":"territory-468","amodiataireId":"64e98262-7f5e-4612-bd58-5653a7a3ee22","amodiataireName":"DAP","amodiataireEmail":"amodiataire_1773221685056_fprto8@navipad.local","activitySector":"other","name":"territory-468","coordinates":{"lat":4.0610021601304584,"lng":9.698311896577287},"latitude":4.0610021601304584,"longitude":9.698311896577287,"images":[]},{"id":"territory-69","amodiataireId":"496cd76e-f5e5-468d-bcb8-2687bb62406b","amodiataireName":"HUAN DONG","activitySector":"other","name":"territory-69","coordinates":{"lat":4.017459024479903,"lng":9.682930720531564},"latitude":4.017459024479903,"longitude":9.682930720531564,"images":[]},{"id":"territory-261","amodiataireId":"0c36d7c2-b80a-4db1-83c9-f0ce56c1cd59","amodiataireName":"HYDROCHEM CAMEROUN S.A","activitySector":"other","name":"territory-261","coordinates":{"lat":4.064767774326989,"lng":9.703270356354507},"latitude":4.064767774326989,"longitude":9.703270356354507,"images":[]},{"id":"territory-308","amodiataireId":"8713ed5a-bc97-49fd-b3d1-d1400f73b471","amodiataireName":"IBC","activitySector":"other","name":"territory-308","coordinates":{"lat":4.013567817386905,"lng":9.680829688249275},"latitude":4.013567817386905,"longitude":9.680829688249275,"images":[]},{"id":"territory-493","amodiataireId":"d9f5dcce-b209-4cfe-af7f-ce2d5a34ee01","amodiataireName":"ICE-CAM","activitySector":"other","name":"territory-493","coordinates":{"lat":4.021970335020024,"lng":9.670260665042878},"latitude":4.021970335020024,"longitude":9.670260665042878,"images":[]},{"id":"territory-495","amodiataireId":"05d5f99c-cf38-430b-8317-cc295dd23609","amodiataireName":"INDUSTRIE ET COMMERCIALE","activitySector":"other","name":"territory-495","coordinates":{"lat":4.018654774250887,"lng":9.672130829041196},"latitude":4.018654774250887,"longitude":9.672130829041196,"images":[]},{"id":"territory-374","amodiataireId":"7cb1650d-04f0-4131-a234-5584847c7779","amodiataireName":"INTER","activitySector":"other","name":"territory-374","coordinates":{"lat":4.019959151170931,"lng":9.674272006970796},"latitude":4.019959151170931,"longitude":9.674272006970796,"images":[]},{"id":"territory-1142","amodiataireId":"6b6af5b6-4e4b-4ed5-91c7-30a03f56b42d","amodiataireName":"IRUS","activitySector":"other","name":"territory-1142","coordinates":{"lat":4.011703296576135,"lng":9.682490404351459},"latitude":4.011703296576135,"longitude":9.682490404351459,"images":[]},{"id":"territory-301","amodiataireId":"3752faa2-8ffd-404e-9968-3d682cf98453","amodiataireName":"ISSAH","activitySector":"other","name":"territory-301","coordinates":{"lat":4.020433672851015,"lng":9.671328335216858},"latitude":4.020433672851015,"longitude":9.671328335216858,"images":[]},{"id":"territory-310","amodiataireId":"4181b67e-f4c2-43ba-ad7c-d66faab4077d","amodiataireName":"ITEC","activitySector":"other","name":"territory-310","coordinates":{"lat":4.009389874596907,"lng":9.679535261788393},"latitude":4.009389874596907,"longitude":9.679535261788393,"images":[]},{"id":"territory-148","amodiataireId":"399bac9a-07a6-4f5a-8d73-3ec8fda95f05","amodiataireName":"JEANNOT","activitySector":"other","name":"territory-148","coordinates":{"lat":4.024004118826561,"lng":9.686815056873085},"latitude":4.024004118826561,"longitude":9.686815056873085,"images":[]},{"id":"territory-1187","amodiataireId":"60411ae2-82c8-42ab-994d-a153949a3532","amodiataireName":"JEFFERSON GROUPE","activitySector":"other","name":"territory-1187","coordinates":{"lat":4.016027299734555,"lng":9.69629667510613},"latitude":4.016027299734555,"longitude":9.69629667510613,"images":[]},{"id":"territory-489","amodiataireId":"ab5d3dee-319e-45eb-9f8a-ad1a3b66cf65","amodiataireName":"JERRY","activitySector":"other","name":"territory-489","coordinates":{"lat":4.023482569413651,"lng":9.669291709888396},"latitude":4.023482569413651,"longitude":9.669291709888396,"images":[]},{"id":"territory-309","amodiataireId":"18af156b-f00a-486c-8480-0af70bda3fcc","amodiataireName":"KAMLOG","activitySector":"other","name":"territory-309","coordinates":{"lat":4.05468439231573,"lng":9.692252185309226},"latitude":4.05468439231573,"longitude":9.692252185309226,"images":[]},{"id":"territory-558","amodiataireId":"18af156b-f00a-486c-8480-0af70bda3fcc","amodiataireName":"KAMLOG","activitySector":"other","name":"territory-558","coordinates":{"lat":4.0214469710600325,"lng":9.683405842197816},"latitude":4.0214469710600325,"longitude":9.683405842197816,"images":[]},{"id":"territory-336","amodiataireId":"7e5251d6-4917-405a-80cd-cdc9fccee3dd","amodiataireName":"KENSON","activitySector":"other","name":"territory-336","coordinates":{"lat":4.012455554483288,"lng":9.6854293587877},"latitude":4.012455554483288,"longitude":9.6854293587877,"images":[]},{"id":"territory-62","amodiataireId":"c0277657-d2ed-4011-a0d8-6f533124fd63","amodiataireName":"KN & CO","activitySector":"other","name":"territory-62","coordinates":{"lat":4.016546949158678,"lng":9.685645271817974},"latitude":4.016546949158678,"longitude":9.685645271817974,"images":[]},{"id":"territory-501","amodiataireId":"fa34831f-e8ba-46e6-8f2b-37ae3af58216","amodiataireName":"KREST","activitySector":"other","name":"territory-501","coordinates":{"lat":4.016292237901768,"lng":9.67623636458371},"latitude":4.016292237901768,"longitude":9.67623636458371,"images":[]},{"id":"territory-302","amodiataireId":"5968408d-2812-4aaa-821b-09ec5685e5b1","amodiataireName":"KTMC","activitySector":"other","name":"territory-302","coordinates":{"lat":4.019178135058767,"lng":9.684980808407358},"latitude":4.019178135058767,"longitude":9.684980808407358,"images":[]},{"id":"territory-571","amodiataireId":"03dfc7b1-38f3-4fe9-8b79-2797bbc19aee","amodiataireName":"LADYDIES TRANS","activitySector":"other","name":"territory-571","coordinates":{"lat":4.013355021652754,"lng":9.68249972931651},"latitude":4.013355021652754,"longitude":9.68249972931651,"images":[]},{"id":"territory-515","amodiataireId":"e9806916-2857-4028-9a6e-a8b9a20c35c2","amodiataireName":"LAMAS","activitySector":"other","name":"territory-515","coordinates":{"lat":4.016097629909122,"lng":9.674169701935773},"latitude":4.016097629909122,"longitude":9.674169701935773,"images":[]},{"id":"territory-165","amodiataireId":"0ca65589-b339-4dd1-8533-770d9954a90c","amodiataireName":"LBR","activitySector":"other","name":"territory-165","coordinates":{"lat":4.028156277059093,"lng":9.677892714824498},"latitude":4.028156277059093,"longitude":9.677892714824498,"images":[]},{"id":"territory-417","amodiataireId":"addf5488-673c-4e2f-8e64-0794ee43010f","amodiataireName":"LDC","activitySector":"other","name":"territory-417","coordinates":{"lat":4.070193962208114,"lng":9.696601003543552},"latitude":4.070193962208114,"longitude":9.696601003543552,"images":[]},{"id":"territory-81","amodiataireId":"8639892a-f1b7-4d5e-95e4-a231accb7274","amodiataireName":"LE MBAM","activitySector":"other","name":"territory-81","coordinates":{"lat":4.024683718725358,"lng":9.668132586895439},"latitude":4.024683718725358,"longitude":9.668132586895439,"images":[]},{"id":"territory-188","amodiataireId":"c6c71e52-17a7-46b3-a8e8-deaaa602f82f","amodiataireName":"LOCATECH","activitySector":"other","name":"territory-188","coordinates":{"lat":4.071658501281846,"lng":9.696645972482463},"latitude":4.071658501281846,"longitude":9.696645972482463,"images":[]},{"id":"territory-99","amodiataireId":"42ebab3d-70d1-4d27-8e10-1939b946379b","amodiataireName":"LOGICO","activitySector":"other","name":"territory-99","coordinates":{"lat":4.015248847335479,"lng":9.691050228081611},"latitude":4.015248847335479,"longitude":9.691050228081611,"images":[]},{"id":"territory-109","amodiataireId":"42ebab3d-70d1-4d27-8e10-1939b946379b","amodiataireName":"LOGICO","activitySector":"other","name":"territory-109","coordinates":{"lat":4.014433312948423,"lng":9.691640407278548},"latitude":4.014433312948423,"longitude":9.691640407278548,"images":[]},{"id":"territory-110","amodiataireId":"42ebab3d-70d1-4d27-8e10-1939b946379b","amodiataireName":"LOGICO","activitySector":"other","name":"territory-110","coordinates":{"lat":4.013787478248953,"lng":9.692008100650382},"latitude":4.013787478248953,"longitude":9.692008100650382,"images":[]},{"id":"territory-1913","amodiataireId":"42ebab3d-70d1-4d27-8e10-1939b946379b","amodiataireName":"LOGICO","activitySector":"other","name":"territory-1913","coordinates":{"lat":4.0142104009725745,"lng":9.693074637125793},"latitude":4.0142104009725745,"longitude":9.693074637125793,"images":[]},{"id":"territory-1914","amodiataireId":"42ebab3d-70d1-4d27-8e10-1939b946379b","amodiataireName":"LOGICO","activitySector":"other","name":"territory-1914","coordinates":{"lat":4.0142104009725745,"lng":9.693074637125793},"latitude":4.0142104009725745,"longitude":9.693074637125793,"images":[]},{"id":"territory-520","amodiataireId":"37787bac-5857-4eb2-bf19-22b762087f0a","amodiataireName":"LOGIS","activitySector":"other","name":"territory-520","coordinates":{"lat":4.018450220538487,"lng":9.688962007227863},"latitude":4.018450220538487,"longitude":9.688962007227863,"images":[]},{"id":"territory-15","amodiataireId":"4d8f417e-211c-49b2-88f6-a770925be9ab","amodiataireName":"LONG STAR","activitySector":"other","name":"territory-15","coordinates":{"lat":4.019349050264191,"lng":9.675106199565302},"latitude":4.019349050264191,"longitude":9.675106199565302,"images":[]},{"id":"territory-470","amodiataireId":"c7fb7ef6-2155-4cb5-abd5-c40451625f42","amodiataireName":"MMEC","activitySector":"other","name":"territory-470","coordinates":{"lat":4.016806691405425,"lng":9.690471806027205},"latitude":4.016806691405425,"longitude":9.690471806027205,"images":[]},{"id":"territory-404","amodiataireId":"254e8061-77e1-468a-af08-7337c42a9b92","amodiataireName":"M A E R S K","activitySector":"other","name":"territory-404","coordinates":{"lat":4.024568806612293,"lng":9.688469731719033},"latitude":4.024568806612293,"longitude":9.688469731719033,"images":[]},{"id":"territory-108","amodiataireId":"f0382972-26e9-4b21-8eba-d70a9022c7da","amodiataireName":"M.D.L SARL","activitySector":"other","name":"territory-108","coordinates":{"lat":4.016160317486735,"lng":9.692288243907957},"latitude":4.016160317486735,"longitude":9.692288243907957,"images":[]},{"id":"territory-131","amodiataireId":"d3795841-d5c8-4b25-a8c1-6a97aed49d25","amodiataireName":"M4AGRI","activitySector":"other","name":"territory-131","coordinates":{"lat":4.021648264833856,"lng":9.68380740673907},"latitude":4.021648264833856,"longitude":9.68380740673907,"images":[]},{"id":"territory-195","amodiataireId":"f576654b-0735-45ac-ace8-588a5505e159","amodiataireName":"MAEREX","activitySector":"other","name":"territory-195","coordinates":{"lat":4.021042115690982,"lng":9.670967770232997},"latitude":4.021042115690982,"longitude":9.670967770232997,"images":[]},{"id":"territory-1903","amodiataireId":"002efa14-e0f4-44d7-a1db-828479c00f32","amodiataireName":"MAGASIN","activitySector":"other","name":"territory-1903","coordinates":{"lat":4.024208490516383,"lng":9.668759071183956},"latitude":4.024208490516383,"longitude":9.668759071183956,"images":[]},{"id":"territory-1905","amodiataireId":"002efa14-e0f4-44d7-a1db-828479c00f32","amodiataireName":"MAGASIN","activitySector":"other","name":"territory-1905","coordinates":{"lat":4.024208490516383,"lng":9.668759071183956},"latitude":4.024208490516383,"longitude":9.668759071183956,"images":[]},{"id":"territory-463","amodiataireId":"27b73a33-c524-4a5d-81db-2d047b2c52a6","amodiataireName":"MAGASIN GENERAL PAD","activitySector":"other","name":"territory-463","coordinates":{"lat":4.065097253454763,"lng":9.702691461781248},"latitude":4.065097253454763,"longitude":9.702691461781248,"images":[]},{"id":"territory-464","amodiataireId":"27b73a33-c524-4a5d-81db-2d047b2c52a6","amodiataireName":"MAGASIN GENERAL PAD","activitySector":"other","name":"territory-464","coordinates":{"lat":4.064836492171169,"lng":9.702383205369651},"latitude":4.064836492171169,"longitude":9.702383205369651,"images":[]},{"id":"territory-466","amodiataireId":"27b73a33-c524-4a5d-81db-2d047b2c52a6","amodiataireName":"MAGASIN GENERAL PAD","activitySector":"other","name":"territory-466","coordinates":{"lat":4.065422312626796,"lng":9.702367181635207},"latitude":4.065422312626796,"longitude":9.702367181635207,"images":[]},{"id":"territory-467","amodiataireId":"27b73a33-c524-4a5d-81db-2d047b2c52a6","amodiataireName":"MAGASIN GENERAL PAD","activitySector":"other","name":"territory-467","coordinates":{"lat":4.065309922480907,"lng":9.702243288314857},"latitude":4.065309922480907,"longitude":9.702243288314857,"images":[]},{"id":"territory-2","amodiataireId":"ec80fc07-cd19-4633-8822-4dfa58130f33","amodiataireName":"MAN DEVELOPMENT","activitySector":"other","name":"territory-2","coordinates":{"lat":4.026184045240745,"lng":9.667560068915051},"latitude":4.026184045240745,"longitude":9.667560068915051,"images":[]},{"id":"territory-237","amodiataireId":"90c294f7-3665-4f6b-9dfd-8a8d0c5b2153","amodiataireName":"MARINA PLAISANCE","activitySector":"other","name":"territory-237","coordinates":{"lat":4.027348925916212,"lng":9.673883425141081},"latitude":4.027348925916212,"longitude":9.673883425141081,"images":[]},{"id":"territory-193","amodiataireId":"057a1d3d-9d0d-4d06-8328-ccd073d88086","amodiataireName":"MARITIME","activitySector":"other","name":"territory-193","coordinates":{"lat":4.0205452279552505,"lng":9.675063584032843},"latitude":4.0205452279552505,"longitude":9.675063584032843,"images":[]},{"id":"territory-1185","amodiataireId":"3a3224fd-8221-4232-9cf4-82fcf95a20ec","amodiataireName":"MATANDA LAND","activitySector":"other","name":"territory-1185","coordinates":{"lat":4.015110366591295,"lng":9.696451815496875},"latitude":4.015110366591295,"longitude":9.696451815496875,"images":[]},{"id":"territory-33","amodiataireId":"faeb4e9e-fda9-48ef-85ab-a8ae34af4b13","amodiataireName":"MAVECAM","activitySector":"other","name":"territory-33","coordinates":{"lat":4.0137081249085895,"lng":9.676643505003652},"latitude":4.0137081249085895,"longitude":9.676643505003652,"images":[]},{"id":"territory-190","amodiataireId":"faeb4e9e-fda9-48ef-85ab-a8ae34af4b13","amodiataireName":"MAVECAM","activitySector":"other","name":"territory-190","coordinates":{"lat":4.070555655721756,"lng":9.69661176444846},"latitude":4.070555655721756,"longitude":9.69661176444846,"images":[]},{"id":"territory-38","amodiataireId":"2ad87075-8fb9-417f-befe-2cc690034d15","amodiataireName":"MCWT","activitySector":"other","name":"territory-38","coordinates":{"lat":4.013284424680879,"lng":9.67473961657337},"latitude":4.013284424680879,"longitude":9.67473961657337,"images":[]},{"id":"territory-211","amodiataireId":"05fe920b-5b77-4d30-9b24-3a10e6504a70","amodiataireName":"MECANIK SARL","activitySector":"other","name":"territory-211","coordinates":{"lat":4.062239290388115,"lng":9.700868935171625},"latitude":4.062239290388115,"longitude":9.700868935171625,"images":[]},{"id":"territory-91","amodiataireId":"8f4fa5b7-ae60-4be3-974d-0f0fe22deb9f","amodiataireName":"MEDIA SPACE","activitySector":"other","name":"territory-91","coordinates":{"lat":4.0204582710219565,"lng":9.677948064359633},"latitude":4.0204582710219565,"longitude":9.677948064359633,"images":[]},{"id":"territory-134","amodiataireId":"5ce6b412-618c-4372-9d3d-1b3e6a551d7d","amodiataireName":"MEDLOG","activitySector":"other","name":"territory-134","coordinates":{"lat":4.0240974423026765,"lng":9.689372651387748},"latitude":4.0240974423026765,"longitude":9.689372651387748,"images":[]},{"id":"territory-198","amodiataireId":"0683a41c-1999-45e1-8934-db00b77579d5","amodiataireName":"METCH-ELEC","activitySector":"other","name":"territory-198","coordinates":{"lat":4.028222636391745,"lng":9.686437920553267},"latitude":4.028222636391745,"longitude":9.686437920553267,"images":[]},{"id":"territory-543","amodiataireId":"d4836f6a-d4d8-4c5a-9a1b-4247e18ae46b","amodiataireName":"MGS","activitySector":"other","name":"territory-543","coordinates":{"lat":4.061159571440699,"lng":9.699610442855686},"latitude":4.061159571440699,"longitude":9.699610442855686,"images":[]},{"id":"territory-372","amodiataireId":"71a2d51f-c8c5-44e7-8843-791d36f53d72","amodiataireName":"MORIAH","activitySector":"other","name":"territory-372","coordinates":{"lat":4.019431342606522,"lng":9.671510813117424},"latitude":4.019431342606522,"longitude":9.671510813117424,"images":[]},{"id":"territory-79","amodiataireId":"9d8898e3-c3d4-4a5d-b8df-3b1e7e8ea0a0","amodiataireName":"MOVIS","activitySector":"other","name":"territory-79","coordinates":{"lat":4.019367255762548,"lng":9.68181216017226},"latitude":4.019367255762548,"longitude":9.68181216017226,"images":[]},{"id":"territory-253","amodiataireId":"8fbd6d1e-dfab-479e-b7cb-29a7bc6f5c19","amodiataireName":"MTMI","activitySector":"other","name":"territory-253","coordinates":{"lat":4.057582477722908,"lng":9.694946191918197},"latitude":4.057582477722908,"longitude":9.694946191918197,"images":[]},{"id":"territory-462","amodiataireId":"5c435661-6cb6-425c-802c-7becbc9807a6","amodiataireName":"MVODCAM","activitySector":"other","name":"territory-462","coordinates":{"lat":4.065530075199753,"lng":9.703169832307571},"latitude":4.065530075199753,"longitude":9.703169832307571,"images":[]},{"id":"territory-370","amodiataireId":"b3794362-9f84-4e14-be3d-86873ad28844","amodiataireName":"NAD","activitySector":"other","name":"territory-370","coordinates":{"lat":4.017313847533475,"lng":9.671427593758118},"latitude":4.017313847533475,"longitude":9.671427593758118,"images":[]},{"id":"territory-4","amodiataireId":"fe83c75e-a119-471a-8391-72c568e1d7bf","amodiataireName":"NAV CAMEROUN","activitySector":"other","name":"territory-4","coordinates":{"lat":4.0135657993565355,"lng":9.683424227319454},"latitude":4.0135657993565355,"longitude":9.683424227319454,"images":[]},{"id":"territory-480","amodiataireId":"fe83c75e-a119-471a-8391-72c568e1d7bf","amodiataireName":"NAV CAMEROUN","activitySector":"other","name":"territory-480","coordinates":{"lat":4.012821950500664,"lng":9.684543041661282},"latitude":4.012821950500664,"longitude":9.684543041661282,"images":[]},{"id":"territory-524","amodiataireId":"36673401-accb-4828-b561-77fd73d17880","amodiataireName":"NAVIGATION","activitySector":"other","name":"territory-524","coordinates":{"lat":4.013849719746103,"lng":9.689595738374877},"latitude":4.013849719746103,"longitude":9.689595738374877,"images":[]},{"id":"territory-563","amodiataireId":"b06bf476-6660-4801-84ef-2df921c89d0b","amodiataireName":"NAVIRE DE","activitySector":"other","name":"territory-563","coordinates":{"lat":4.024559828223178,"lng":9.668256132528082},"latitude":4.024559828223178,"longitude":9.668256132528082,"images":[]},{"id":"territory-254","amodiataireId":"8d8ae2f8-d60c-4e56-a978-f22453cb9a63","amodiataireName":"NBA","activitySector":"other","name":"territory-254","coordinates":{"lat":4.070413720448075,"lng":9.697029734246092},"latitude":4.070413720448075,"longitude":9.697029734246092,"images":[]},{"id":"territory-402","amodiataireId":"2ddfee78-2faf-4c54-82b6-fece7975fb3d","amodiataireName":"NEALIKO","activitySector":"other","name":"territory-402","coordinates":{"lat":4.022709754301594,"lng":9.681677110450401},"latitude":4.022709754301594,"longitude":9.681677110450401,"images":[]},{"id":"territory-216","amodiataireId":"85df2e06-b700-4a29-bbeb-bd52fa5d79c0","amodiataireName":"OLA ENERGIE","activitySector":"other","name":"territory-216","coordinates":{"lat":4.065500476695276,"lng":9.70403801854467},"latitude":4.065500476695276,"longitude":9.70403801854467,"images":[]},{"id":"territory-442","amodiataireId":"889e2fd3-649b-410e-a59d-f55f6081f106","amodiataireName":"NEW LIFE","activitySector":"other","name":"territory-442","coordinates":{"lat":4.012616534647463,"lng":9.696957934232765},"latitude":4.012616534647463,"longitude":9.696957934232765,"images":[]},{"id":"territory-1190","amodiataireId":"889e2fd3-649b-410e-a59d-f55f6081f106","amodiataireName":"NEW LIFE","activitySector":"other","name":"territory-1190","coordinates":{"lat":4.012616534647463,"lng":9.696957934232765},"latitude":4.012616534647463,"longitude":9.696957934232765,"images":[]},{"id":"territory-349","amodiataireId":"01ad9700-b637-4fd8-8884-d9fc413d3af7","amodiataireName":"NGAMOU","activitySector":"other","name":"territory-349","coordinates":{"lat":4.0234715294295835,"lng":9.668848155643916},"latitude":4.0234715294295835,"longitude":9.668848155643916,"images":[]},{"id":"territory-60","amodiataireId":"c4b45fc1-262f-48c4-b269-de02d63e420b","amodiataireName":"NGASSAM FARM","activitySector":"other","name":"territory-60","coordinates":{"lat":4.014425470750759,"lng":9.680740982284282},"latitude":4.014425470750759,"longitude":9.680740982284282,"images":[]},{"id":"territory-10","amodiataireId":"fc104440-55aa-43b9-becb-1cd425864d67","amodiataireName":"NGO BINAM","activitySector":"other","name":"territory-10","coordinates":{"lat":4.0238947345418,"lng":9.668747861305812},"latitude":4.0238947345418,"longitude":9.668747861305812,"images":[]},{"id":"territory-459","amodiataireId":"6ba7fe9b-f519-4c52-a154-e7ae6bda5bd1","amodiataireName":"NGOSSO","activitySector":"other","name":"territory-459","coordinates":{"lat":4.0215491736197375,"lng":9.670155952197257},"latitude":4.0215491736197375,"longitude":9.670155952197257,"images":[]},{"id":"territory-487","amodiataireId":"482d0900-7d71-4873-ad06-0de127af04b2","amodiataireName":"NOURISKHA","activitySector":"other","name":"territory-487","coordinates":{"lat":4.021240258978492,"lng":9.67298072151977},"latitude":4.021240258978492,"longitude":9.67298072151977,"images":[]},{"id":"territory-281","amodiataireId":"03491e0f-5ff9-4ada-8bb3-04b9a81820a2","amodiataireName":"NOUTCHA","activitySector":"other","name":"territory-281","coordinates":{"lat":4.031679106719954,"lng":9.67983517376532},"latitude":4.031679106719954,"longitude":9.67983517376532,"images":[]},{"id":"territory-444","amodiataireId":"03491e0f-5ff9-4ada-8bb3-04b9a81820a2","amodiataireName":"NOUTCHA","activitySector":"other","name":"territory-444","coordinates":{"lat":4.031740788302081,"lng":9.679549212700547},"latitude":4.031740788302081,"longitude":9.679549212700547,"images":[]},{"id":"territory-246","amodiataireId":"11496c7d-610e-4b3c-831c-fbf18d3241e7","amodiataireName":"NOVIA","activitySector":"other","name":"territory-246","coordinates":{"lat":4.070965919221038,"lng":9.698823028229903},"latitude":4.070965919221038,"longitude":9.698823028229903,"images":[]},{"id":"territory-307","amodiataireId":"e4d60b76-84de-47e6-ae3a-7b5530314e23","amodiataireName":"NRC","activitySector":"other","name":"territory-307","coordinates":{"lat":4.055321327511386,"lng":9.692780285037385},"latitude":4.055321327511386,"longitude":9.692780285037385,"images":[]},{"id":"territory-283","amodiataireId":"4c274da3-72a1-49b8-a952-936627f812ba","amodiataireName":"OLA ENERGY","activitySector":"other","name":"territory-283","coordinates":{"lat":4.027024670162514,"lng":9.687825785326636},"latitude":4.027024670162514,"longitude":9.687825785326636,"images":[]},{"id":"territory-1980","amodiataireId":"4c274da3-72a1-49b8-a952-936627f812ba","amodiataireName":"OLA ENERGY","activitySector":"other","name":"territory-1980","coordinates":{"lat":4.027099080703938,"lng":9.670644135390388},"latitude":4.027099080703938,"longitude":9.670644135390388,"images":[]},{"id":"territory-184","amodiataireId":"0ab049d4-f2d8-4dad-858a-416cc82783cd","amodiataireName":"OLAM CAM","activitySector":"other","name":"territory-184","coordinates":{"lat":4.05809111285758,"lng":9.695328181673641},"latitude":4.05809111285758,"longitude":9.695328181673641,"images":[]},{"id":"territory-185","amodiataireId":"0ab049d4-f2d8-4dad-858a-416cc82783cd","amodiataireName":"OLAM CAM","activitySector":"other","name":"territory-185","coordinates":{"lat":4.057102680023694,"lng":9.694352543096183},"latitude":4.057102680023694,"longitude":9.694352543096183,"images":[]},{"id":"territory-182","amodiataireId":"a2fd1292-85e2-42ee-aa93-9ac1a97a2ac1","amodiataireName":"OLAM COCO","activitySector":"other","name":"territory-182","coordinates":{"lat":4.060194799485723,"lng":9.69761096059924},"latitude":4.060194799485723,"longitude":9.69761096059924,"images":[]},{"id":"territory-231","amodiataireId":"d8b575b3-0b28-467d-9e7f-02c345760f27","amodiataireName":"OLAM OFI","activitySector":"other","name":"territory-231","coordinates":{"lat":4.0374204385335775,"lng":9.681010251605764},"latitude":4.0374204385335775,"longitude":9.681010251605764,"images":[]},{"id":"territory-43","amodiataireId":"f6fc9a60-c5d8-4ab7-be4b-e4fce3c518da","amodiataireName":"ONDO","activitySector":"other","name":"territory-43","coordinates":{"lat":4.025104810284493,"lng":9.667772421539878},"latitude":4.025104810284493,"longitude":9.667772421539878,"images":[]},{"id":"territory-512","amodiataireId":"63899207-ab7b-46e4-a5b5-6c7670426704","amodiataireName":"ORANGE","activitySector":"other","name":"territory-512","coordinates":{"lat":4.018743149543068,"lng":9.67887111507983},"latitude":4.018743149543068,"longitude":9.67887111507983,"images":[]},{"id":"territory-567","amodiataireId":"fe4313f8-b0d9-45d3-8778-1d968383cd39","amodiataireName":"P2PRO","activitySector":"other","name":"territory-567","coordinates":{"lat":4.059258682022141,"lng":9.696004928469241},"latitude":4.059258682022141,"longitude":9.696004928469241,"images":[]},{"id":"territory-384","amodiataireId":"8d6689c5-db5c-459f-9c40-a6a3d5551ad2","amodiataireName":"PALMARES","activitySector":"other","name":"territory-384","coordinates":{"lat":4.023126629757172,"lng":9.673344047359695},"latitude":4.023126629757172,"longitude":9.673344047359695,"images":[]},{"id":"territory-499","amodiataireId":"5769402d-1442-4dba-8e34-d2b1a20fa65d","amodiataireName":"PAM","activitySector":"other","name":"territory-499","coordinates":{"lat":4.0202641259451495,"lng":9.674699009400047},"latitude":4.0202641259451495,"longitude":9.674699009400047,"images":[]},{"id":"territory-573","amodiataireId":"1e3281c2-5afd-4fb4-b3c0-7604c7f53e8b","amodiataireName":"PAPETERIES","activitySector":"other","name":"territory-573","coordinates":{"lat":4.01250226628149,"lng":9.691434318355673},"latitude":4.01250226628149,"longitude":9.691434318355673,"images":[]},{"id":"territory-350","amodiataireId":"9acd02b1-4ab6-4399-8ae1-5e32dc23e5a3","amodiataireName":"PAQUEBOT","activitySector":"other","name":"territory-350","coordinates":{"lat":4.023725723890069,"lng":9.668854488568684},"latitude":4.023725723890069,"longitude":9.668854488568684,"images":[]},{"id":"territory-318","amodiataireId":"e7f454e3-b866-49b1-9f78-9f8d89c7a852","amodiataireName":"PECTEN","activitySector":"other","name":"territory-318","coordinates":{"lat":4.026199450814332,"lng":9.669883399686263},"latitude":4.026199450814332,"longitude":9.669883399686263,"images":[]},{"id":"territory-298","amodiataireId":"2475db34-c2b8-465c-8e2a-860fc29e923c","amodiataireName":"PERSEVERANCE","activitySector":"other","name":"territory-298","coordinates":{"lat":4.067616290963983,"lng":9.702339062373163},"latitude":4.067616290963983,"longitude":9.702339062373163,"images":[]},{"id":"territory-67","amodiataireId":"5d0915eb-0508-44cf-a57a-c6c1dc0428b6","amodiataireName":"PETRO SERVICESN& LOGISTIQUE","activitySector":"other","name":"territory-67","coordinates":{"lat":4.018528596758719,"lng":9.684532827229402},"latitude":4.018528596758719,"longitude":9.684532827229402,"images":[]},{"id":"territory-199","amodiataireId":"9a53f096-79af-407a-ab8f-c8f7be25a10c","amodiataireName":"PLANET LOG","activitySector":"other","name":"territory-199","coordinates":{"lat":4.02866890648192,"lng":9.68598062319484},"latitude":4.02866890648192,"longitude":9.68598062319484,"images":[]},{"id":"territory-305","amodiataireId":"1a5be7f9-f516-4cb8-93ef-d7256fa1a99e","amodiataireName":"POISSONNERIE","activitySector":"other","name":"territory-305","coordinates":{"lat":4.06350144487898,"lng":9.702303251159401},"latitude":4.06350144487898,"longitude":9.702303251159401,"images":[]},{"id":"territory-430","amodiataireId":"1a5be7f9-f516-4cb8-93ef-d7256fa1a99e","amodiataireName":"POISSONNERIE","activitySector":"other","name":"territory-430","coordinates":{"lat":4.062126354910995,"lng":9.699588394630164},"latitude":4.062126354910995,"longitude":9.699588394630164,"images":[]},{"id":"territory-448","amodiataireId":"3ecc745f-bc4c-4bf7-b35e-82cb2248f693","amodiataireName":"POSTE DE POMPAGE SCDP","activitySector":"other","name":"territory-448","coordinates":{"lat":4.0587066199681425,"lng":9.69538668680696},"latitude":4.0587066199681425,"longitude":9.69538668680696,"images":[]},{"id":"territory-84","amodiataireId":"2036b5a5-cbb1-4c5a-a6ea-48b8d2eac799","amodiataireName":"PROCIM","activitySector":"other","name":"territory-84","coordinates":{"lat":4.016768565863675,"lng":9.677986310451844},"latitude":4.016768565863675,"longitude":9.677986310451844,"images":[]},{"id":"territory-75","amodiataireId":"e79eea84-7f88-4e5e-a88a-072209a14832","amodiataireName":"PROMODIS","activitySector":"other","name":"territory-75","coordinates":{"lat":4.019832801884219,"lng":9.68371440745716},"latitude":4.019832801884219,"longitude":9.68371440745716,"images":[]},